{"type": "FeatureCollection", "features": [{"geometry": {"type": "Point", "coordinates": [6.0947, 50.7839]}, "type": "Feature", "properties": {"id": 3, "name": "Aachen"}}, {"geometry": {"type": "Point", "coordinates": [10.0594, 48.8358]}, "type": "Feature", "properties": {"id": 6, "name": "Aalen-Unterrombach"}}, {"geometry": {"type": "Point", "coordinates": [8.5203, 47.9733]}, "type": "Feature", "properties": {"id": 11, "name": "Donaueschingen (Landeplatz)"}}, {"geometry": {"type": "Point", "coordinates": [9.9708, 48.8797]}, "type": "Feature", "properties": {"id": 19, "name": "Abtsgm\u00fcnd-Neubronn"}}, {"geometry": {"type": "Point", "coordinates": [9.9125, 48.9219]}, "type": "Feature", "properties": {"id": 20, "name": "Abtsgm\u00fcnd-Untergr\u00f6ningen"}}, {"geometry": {"type": "Point", "coordinates": [9.6983, 47.6106]}, "type": "Feature", "properties": {"id": 21, "name": "Achberg-Doberatsweiler"}}, {"geometry": {"type": "Point", "coordinates": [8.0464, 48.6319]}, "type": "Feature", "properties": {"id": 22, "name": "Achern-Fautenbach"}}, {"geometry": {"type": "Point", "coordinates": [10.91, 49.7172]}, "type": "Feature", "properties": {"id": 29, "name": "Adelsdorf (Kl\u00e4ranlage)"}}, {"geometry": {"type": "Point", "coordinates": [9.5544, 52.7617]}, "type": "Feature", "properties": {"id": 41, "name": "Ahlden"}}, {"geometry": {"type": "Point", "coordinates": [8.2369, 52.9336]}, "type": "Feature", "properties": {"id": 44, "name": "Gro\u00dfenkneten"}}, {"geometry": {"type": "Point", "coordinates": [12.4631, 48.9447]}, "type": "Feature", "properties": {"id": 46, "name": "Aholfing"}}, {"geometry": {"type": "Point", "coordinates": [9.5439, 49.4997]}, "type": "Feature", "properties": {"id": 47, "name": "Ahorn-Eubigheim"}}, {"geometry": {"type": "Point", "coordinates": [11.4072, 49.8383]}, "type": "Feature", "properties": {"id": 49, "name": "Ahorntal-Weiher"}}, {"geometry": {"type": "Point", "coordinates": [10.2003, 53.6639]}, "type": "Feature", "properties": {"id": 52, "name": "Ahrensburg-Wulfsdorf"}}, {"geometry": {"type": "Point", "coordinates": [13.5633, 52.5847]}, "type": "Feature", "properties": {"id": 53, "name": "Ahrensfelde"}}, {"geometry": {"type": "Point", "coordinates": [12.0239, 47.8781]}, "type": "Feature", "properties": {"id": 55, "name": "Aibling, Bad-Ellmosen"}}, {"geometry": {"type": "Point", "coordinates": [11.0519, 48.4797]}, "type": "Feature", "properties": {"id": 57, "name": "Hollenbach/Bayern-Sch\u00f6nbach"}}, {"geometry": {"type": "Point", "coordinates": [10.5375, 47.8172]}, "type": "Feature", "properties": {"id": 63, "name": "Aitrang"}}, {"geometry": {"type": "Point", "coordinates": [8.9783, 48.2156]}, "type": "Feature", "properties": {"id": 71, "name": "Albstadt-Badkap"}}, {"geometry": {"type": "Point", "coordinates": [9.0011, 48.2775]}, "type": "Feature", "properties": {"id": 72, "name": "Albstadt-Onstmettingen"}}, {"geometry": {"type": "Point", "coordinates": [13.0506, 48.6158]}, "type": "Feature", "properties": {"id": 73, "name": "Aldersbach-Kriestorf"}}, {"geometry": {"type": "Point", "coordinates": [7.9117, 52.4847]}, "type": "Feature", "properties": {"id": 78, "name": "Alfhausen"}}, {"geometry": {"type": "Point", "coordinates": [7.0153, 50.6719]}, "type": "Feature", "properties": {"id": 79, "name": "Alfter-Volmershoven"}}, {"geometry": {"type": "Point", "coordinates": [11.0486, 51.095]}, "type": "Feature", "properties": {"id": 87, "name": "Alperstedt"}}, {"geometry": {"type": "Point", "coordinates": [9.2581, 50.7553]}, "type": "Feature", "properties": {"id": 90, "name": "Alsfeld"}}, {"geometry": {"type": "Point", "coordinates": [9.345, 50.7447]}, "type": "Feature", "properties": {"id": 91, "name": "Alsfeld-Eifa"}}, {"geometry": {"type": "Point", "coordinates": [8.4681, 51.1903]}, "type": "Feature", "properties": {"id": 98, "name": "Altastenberg"}}, {"geometry": {"type": "Point", "coordinates": [8.1264, 53.8617]}, "type": "Feature", "properties": {"id": 102, "name": "Leuchtturm Alte Weser"}}, {"geometry": {"type": "Point", "coordinates": [12.2167, 48.8964]}, "type": "Feature", "properties": {"id": 103, "name": "Hagelstadt"}}, {"geometry": {"type": "Point", "coordinates": [6.9711, 50.4844]}, "type": "Feature", "properties": {"id": 105, "name": "Ahrbr\u00fcck"}}, {"geometry": {"type": "Point", "coordinates": [7.4872, 52.0469]}, "type": "Feature", "properties": {"id": 110, "name": "Altenberge"}}, {"geometry": {"type": "Point", "coordinates": [12.285, 49.4053]}, "type": "Feature", "properties": {"id": 118, "name": "Altendorf"}}, {"geometry": {"type": "Point", "coordinates": [11.5767, 51.2386]}, "type": "Feature", "properties": {"id": 124, "name": "Bibra, Bad-Altenroda"}}, {"geometry": {"type": "Point", "coordinates": [10.8667, 47.8342]}, "type": "Feature", "properties": {"id": 125, "name": "Altenstadt"}}, {"geometry": {"type": "Point", "coordinates": [10.2225, 49.5458]}, "type": "Feature", "properties": {"id": 126, "name": "Uffenheim (Schulstr.)"}}, {"geometry": {"type": "Point", "coordinates": [12.3031, 49.095]}, "type": "Feature", "properties": {"id": 128, "name": "Altenthann"}}, {"geometry": {"type": "Point", "coordinates": [13.2633, 53.6881]}, "type": "Feature", "properties": {"id": 129, "name": "Altentreptow"}}, {"geometry": {"type": "Point", "coordinates": [9.7689, 49.7281]}, "type": "Feature", "properties": {"id": 130, "name": "Altertheim-Oberaltertheim"}}, {"geometry": {"type": "Point", "coordinates": [12.9325, 51.0878]}, "type": "Feature", "properties": {"id": 131, "name": "Geringswalde-Altgeringswalde"}}, {"geometry": {"type": "Point", "coordinates": [11.3117, 48.4058]}, "type": "Feature", "properties": {"id": 142, "name": "Altom\u00fcnster-Maisbrunn"}}, {"geometry": {"type": "Point", "coordinates": [10.2539, 47.7986]}, "type": "Feature", "properties": {"id": 145, "name": "Altusried-Krugzell"}}, {"geometry": {"type": "Point", "coordinates": [10.0986, 47.7919]}, "type": "Feature", "properties": {"id": 146, "name": "Altusried-Muthmannshofen"}}, {"geometry": {"type": "Point", "coordinates": [9.0597, 50.0889]}, "type": "Feature", "properties": {"id": 149, "name": "Alzenau"}}, {"geometry": {"type": "Point", "coordinates": [8.1158, 49.7269]}, "type": "Feature", "properties": {"id": 150, "name": "Alzey"}}, {"geometry": {"type": "Point", "coordinates": [11.8544, 49.4689]}, "type": "Feature", "properties": {"id": 151, "name": "Amberg-Unterammersricht"}}, {"geometry": {"type": "Point", "coordinates": [10.2197, 53.1283]}, "type": "Feature", "properties": {"id": 152, "name": "Amelinghausen"}}, {"geometry": {"type": "Point", "coordinates": [12.2922, 48.0194]}, "type": "Feature", "properties": {"id": 154, "name": "Amerang-Pfaffing"}}, {"geometry": {"type": "Point", "coordinates": [8.9536, 50.78]}, "type": "Feature", "properties": {"id": 158, "name": "Am\u00f6neburg-R\u00fcdigheim"}}, {"geometry": {"type": "Point", "coordinates": [11.1775, 47.9636]}, "type": "Feature", "properties": {"id": 160, "name": "Andechs-Erling"}}, {"geometry": {"type": "Point", "coordinates": [7.4203, 50.4236]}, "type": "Feature", "properties": {"id": 161, "name": "Andernach"}}, {"geometry": {"type": "Point", "coordinates": [13.9906, 53.0314]}, "type": "Feature", "properties": {"id": 164, "name": "Angerm\u00fcnde"}}, {"geometry": {"type": "Point", "coordinates": [13.6836, 53.8414]}, "type": "Feature", "properties": {"id": 167, "name": "Anklam"}}, {"geometry": {"type": "Point", "coordinates": [7.9767, 49.1886]}, "type": "Feature", "properties": {"id": 174, "name": "Annweiler-Bindersbach"}}, {"geometry": {"type": "Point", "coordinates": [10.5764, 49.2975]}, "type": "Feature", "properties": {"id": 175, "name": "Ansbach"}}, {"geometry": {"type": "Point", "coordinates": [10.5356, 49.2994]}, "type": "Feature", "properties": {"id": 178, "name": "Ansbach-Schalkhausen"}}, {"geometry": {"type": "Point", "coordinates": [11.5042, 52.8761]}, "type": "Feature", "properties": {"id": 181, "name": "Arendsee"}}, {"geometry": {"type": "Point", "coordinates": [13.4342, 54.6789]}, "type": "Feature", "properties": {"id": 183, "name": "Arkona"}}, {"geometry": {"type": "Point", "coordinates": [8.0722, 51.3786]}, "type": "Feature", "properties": {"id": 186, "name": "Arnsberg"}}, {"geometry": {"type": "Point", "coordinates": [9.9111, 49.9694]}, "type": "Feature", "properties": {"id": 191, "name": "Arnstein-M\u00fcdesheim"}}, {"geometry": {"type": "Point", "coordinates": [9.0831, 51.3858]}, "type": "Feature", "properties": {"id": 193, "name": "Arolsen-Neu Berich"}}, {"geometry": {"type": "Point", "coordinates": [9.0769, 51.3428]}, "type": "Feature", "properties": {"id": 194, "name": "Arolsen-Landau"}}, {"geometry": {"type": "Point", "coordinates": [9.0558, 51.3217]}, "type": "Feature", "properties": {"id": 197, "name": "Arolsen-Volkhardinghausen"}}, {"geometry": {"type": "Point", "coordinates": [11.2919, 51.3744]}, "type": "Feature", "properties": {"id": 198, "name": "Artern"}}, {"geometry": {"type": "Point", "coordinates": [6.3161, 50.085]}, "type": "Feature", "properties": {"id": 200, "name": "Lauperath-Scheidchen"}}, {"geometry": {"type": "Point", "coordinates": [9.1114, 49.9778]}, "type": "Feature", "properties": {"id": 202, "name": "Aschaffenburg"}}, {"geometry": {"type": "Point", "coordinates": [12.3367, 47.7858]}, "type": "Feature", "properties": {"id": 203, "name": "Aschau-Innerkoy"}}, {"geometry": {"type": "Point", "coordinates": [12.2981, 47.7272]}, "type": "Feature", "properties": {"id": 205, "name": "Aschau-Stein"}}, {"geometry": {"type": "Point", "coordinates": [11.4667, 51.7497]}, "type": "Feature", "properties": {"id": 207, "name": "Aschersleben"}}, {"geometry": {"type": "Point", "coordinates": [8.4681, 50.5797]}, "type": "Feature", "properties": {"id": 211, "name": "A\u00dflar Klein-Altenst\u00e4dten"}}, {"geometry": {"type": "Point", "coordinates": [10.9897, 51.9375]}, "type": "Feature", "properties": {"id": 213, "name": "Sargstedt"}}, {"geometry": {"type": "Point", "coordinates": [7.8806, 51.1142]}, "type": "Feature", "properties": {"id": 216, "name": "Attendorn-Neulisternohl"}}, {"geometry": {"type": "Point", "coordinates": [11.3642, 47.8772]}, "type": "Feature", "properties": {"id": 217, "name": "Attenkam"}}, {"geometry": {"type": "Point", "coordinates": [11.7131, 48.5525]}, "type": "Feature", "properties": {"id": 221, "name": "Au i.d.Hallertau-G\u00fcnzenhausen"}}, {"geometry": {"type": "Point", "coordinates": [12.7139, 50.5906]}, "type": "Feature", "properties": {"id": 222, "name": "Aue"}}, {"geometry": {"type": "Point", "coordinates": [11.6233, 49.7008]}, "type": "Feature", "properties": {"id": 223, "name": "Auerbach/Oberpfalz"}}, {"geometry": {"type": "Point", "coordinates": [11.2661, 49.8819]}, "type": "Feature", "properties": {"id": 227, "name": "Aufse\u00df-Hochstahl"}}, {"geometry": {"type": "Point", "coordinates": [10.9419, 48.4253]}, "type": "Feature", "properties": {"id": 232, "name": "Augsburg"}}, {"geometry": {"type": "Point", "coordinates": [9.6683, 47.9708]}, "type": "Feature", "properties": {"id": 238, "name": "Aulendorf-Spiegler"}}, {"geometry": {"type": "Point", "coordinates": [9.5744, 50.1803]}, "type": "Feature", "properties": {"id": 240, "name": "Aura im Sinngrund"}}, {"geometry": {"type": "Point", "coordinates": [7.4678, 53.4636]}, "type": "Feature", "properties": {"id": 243, "name": "Aurich"}}, {"geometry": {"type": "Point", "coordinates": [7.5747, 53.4583]}, "type": "Feature", "properties": {"id": 245, "name": "Aurich-Wiesens"}}, {"geometry": {"type": "Point", "coordinates": [12.8925, 51.7028]}, "type": "Feature", "properties": {"id": 246, "name": "Axien"}}, {"geometry": {"type": "Point", "coordinates": [8.2456, 48.7267]}, "type": "Feature", "properties": {"id": 257, "name": "Baden-Baden-Geroldsau"}}, {"geometry": {"type": "Point", "coordinates": [7.6383, 47.8061]}, "type": "Feature", "properties": {"id": 259, "name": "M\u00fcllheim"}}, {"geometry": {"type": "Point", "coordinates": [8.2736, 48.5303]}, "type": "Feature", "properties": {"id": 268, "name": "Baiersbronn-Obertal"}}, {"geometry": {"type": "Point", "coordinates": [8.3178, 48.5114]}, "type": "Feature", "properties": {"id": 269, "name": "Baiersbronn-Mitteltal"}}, {"geometry": {"type": "Point", "coordinates": [8.406, 48.5698]}, "type": "Feature", "properties": {"id": 270, "name": "Baiersbronn-Sch\u00f6negr\u00fcnd"}}, {"geometry": {"type": "Point", "coordinates": [10.1042, 47.4647]}, "type": "Feature", "properties": {"id": 275, "name": "Balderschwang"}}, {"geometry": {"type": "Point", "coordinates": [8.8831, 48.2772]}, "type": "Feature", "properties": {"id": 277, "name": "Balingen-Heselwangen"}}, {"geometry": {"type": "Point", "coordinates": [9.4514, 48.7572]}, "type": "Feature", "properties": {"id": 279, "name": "Baltmannsweiler-Hohengehren"}}, {"geometry": {"type": "Point", "coordinates": [10.9206, 49.8742]}, "type": "Feature", "properties": {"id": 282, "name": "Bamberg"}}, {"geometry": {"type": "Point", "coordinates": [10.8883, 49.8847]}, "type": "Feature", "properties": {"id": 284, "name": "Bamberg (Sternwarte)"}}, {"geometry": {"type": "Point", "coordinates": [11.9158, 51.9608]}, "type": "Feature", "properties": {"id": 287, "name": "Walternienburg-Ronney"}}, {"geometry": {"type": "Point", "coordinates": [13.7567, 53.8425]}, "type": "Feature", "properties": {"id": 288, "name": "Bargischow-Gnevezin"}}, {"geometry": {"type": "Point", "coordinates": [11.0781, 52.1156]}, "type": "Feature", "properties": {"id": 290, "name": "Barneberg"}}, {"geometry": {"type": "Point", "coordinates": [8.487, 52.6966]}, "type": "Feature", "properties": {"id": 292, "name": "Barnstorf"}}, {"geometry": {"type": "Point", "coordinates": [9.4299, 52.3198]}, "type": "Feature", "properties": {"id": 294, "name": "Barsinghausen-Hohenbostel"}}, {"geometry": {"type": "Point", "coordinates": [12.7108, 54.3406]}, "type": "Feature", "properties": {"id": 298, "name": "Barth"}}, {"geometry": {"type": "Point", "coordinates": [13.4994, 52.0614]}, "type": "Feature", "properties": {"id": 303, "name": "Baruth"}}, {"geometry": {"type": "Point", "coordinates": [12.9333, 53.7333]}, "type": "Feature", "properties": {"id": 305, "name": "Basepohl"}}, {"geometry": {"type": "Point", "coordinates": [8.6692, 51.0031]}, "type": "Feature", "properties": {"id": 309, "name": "Battenberg-Berghofen"}}, {"geometry": {"type": "Point", "coordinates": [8.5372, 51.0661]}, "type": "Feature", "properties": {"id": 310, "name": "Battenberg-Hof Karlsburg"}}, {"geometry": {"type": "Point", "coordinates": [11.8817, 53.8147]}, "type": "Feature", "properties": {"id": 312, "name": "Baumgarten"}}, {"geometry": {"type": "Point", "coordinates": [14.5036, 51.1603]}, "type": "Feature", "properties": {"id": 314, "name": "Kubsch\u00fctz, Kr. Bautzen"}}, {"geometry": {"type": "Point", "coordinates": [7.8389, 49.6958]}, "type": "Feature", "properties": {"id": 316, "name": "Bayerfeld-Steckweiler -Schmalfelderhof"}}, {"geometry": {"type": "Point", "coordinates": [10.4714, 47.9244]}, "type": "Feature", "properties": {"id": 319, "name": "Bayersried"}}, {"geometry": {"type": "Point", "coordinates": [11.5194, 49.9667]}, "type": "Feature", "properties": {"id": 320, "name": "Heinersreuth-Vollhof"}}, {"geometry": {"type": "Point", "coordinates": [10.5917, 49.1625]}, "type": "Feature", "properties": {"id": 323, "name": "Bechhofen/Mittelfranken -Voggendorf"}}, {"geometry": {"type": "Point", "coordinates": [8.0586, 51.7217]}, "type": "Feature", "properties": {"id": 326, "name": "Beckum-Unterberg"}}, {"geometry": {"type": "Point", "coordinates": [8.9678, 49.5617]}, "type": "Feature", "properties": {"id": 330, "name": "Beerfelden"}}, {"geometry": {"type": "Point", "coordinates": [14.2331, 52.1864]}, "type": "Feature", "properties": {"id": 333, "name": "Beeskow"}}, {"geometry": {"type": "Point", "coordinates": [10.5158, 51.0219]}, "type": "Feature", "properties": {"id": 336, "name": "H\u00f6rselberg-Hainich-Behringen"}}, {"geometry": {"type": "Point", "coordinates": [8.1693, 52.317]}, "type": "Feature", "properties": {"id": 342, "name": "Belm"}}, {"geometry": {"type": "Point", "coordinates": [12.5981, 52.1433]}, "type": "Feature", "properties": {"id": 345, "name": "Belzig, Bad"}}, {"geometry": {"type": "Point", "coordinates": [7.5894, 50.4147]}, "type": "Feature", "properties": {"id": 348, "name": "Bendorf"}}, {"geometry": {"type": "Point", "coordinates": [11.4139, 47.7061]}, "type": "Feature", "properties": {"id": 349, "name": "Benediktbeuern"}}, {"geometry": {"type": "Point", "coordinates": [10.6975, 51.6925]}, "type": "Feature", "properties": {"id": 351, "name": "Oberharz am Brocken-Sorge"}}, {"geometry": {"type": "Point", "coordinates": [7.1317, 52.3011]}, "type": "Feature", "properties": {"id": 357, "name": "Bentheim, Bad"}}, {"geometry": {"type": "Point", "coordinates": [11.7956, 49.1022]}, "type": "Feature", "properties": {"id": 359, "name": "Beratzhausen"}}, {"geometry": {"type": "Point", "coordinates": [11.4328, 49.1114]}, "type": "Feature", "properties": {"id": 360, "name": "Berching"}}, {"geometry": {"type": "Point", "coordinates": [13.0125, 47.6353]}, "type": "Feature", "properties": {"id": 361, "name": "Berchtesgaden (KKst)"}}, {"geometry": {"type": "Point", "coordinates": [9.9248, 52.8152]}, "type": "Feature", "properties": {"id": 368, "name": "Bergen"}}, {"geometry": {"type": "Point", "coordinates": [7.1017, 50.9553]}, "type": "Feature", "properties": {"id": 372, "name": "Bergisch Gladbach -Refrath"}}, {"geometry": {"type": "Point", "coordinates": [7.9961, 49.1069]}, "type": "Feature", "properties": {"id": 377, "name": "Bergzabern, Bad"}}, {"geometry": {"type": "Point", "coordinates": [10.1075, 51.6842]}, "type": "Feature", "properties": {"id": 378, "name": "Berka"}}, {"geometry": {"type": "Point", "coordinates": [10.0808, 48.0408]}, "type": "Feature", "properties": {"id": 384, "name": "Berkheim"}}, {"geometry": {"type": "Point", "coordinates": [8.3861, 51.0467]}, "type": "Feature", "properties": {"id": 386, "name": "Berleburg, Bad"}}, {"geometry": {"type": "Point", "coordinates": [8.4317, 51.0147]}, "type": "Feature", "properties": {"id": 389, "name": "Berleburg, Bad-Arfeld"}}, {"geometry": {"type": "Point", "coordinates": [8.3678, 50.9836]}, "type": "Feature", "properties": {"id": 390, "name": "Berleburg, Bad-St\u00fcnzel"}}, {"geometry": {"type": "Point", "coordinates": [13.4167, 52.5167]}, "type": "Feature", "properties": {"id": 396, "name": "Berlin-Alexanderplatz (135m)"}}, {"geometry": {"type": "Point", "coordinates": [13.4167, 52.5167]}, "type": "Feature", "properties": {"id": 397, "name": "Berlin-Alexanderplatz (260m)"}}, {"geometry": {"type": "Point", "coordinates": [13.4167, 52.5167]}, "type": "Feature", "properties": {"id": 398, "name": "Berlin-Alexanderplatz (365m)"}}, {"geometry": {"type": "Point", "coordinates": [13.4106, 52.5206]}, "type": "Feature", "properties": {"id": 399, "name": "Berlin-Alexanderplatz"}}, {"geometry": {"type": "Point", "coordinates": [13.5022, 52.6309]}, "type": "Feature", "properties": {"id": 400, "name": "Berlin-Buch"}}, {"geometry": {"type": "Point", "coordinates": [13.3014, 52.4578]}, "type": "Feature", "properties": {"id": 402, "name": "Berlin-Dahlem (LFAG)"}}, {"geometry": {"type": "Point", "coordinates": [13.3103, 52.4578]}, "type": "Feature", "properties": {"id": 403, "name": "Berlin-Dahlem (FU)"}}, {"geometry": {"type": "Point", "coordinates": [13.7308, 52.4042]}, "type": "Feature", "properties": {"id": 410, "name": "Berlin-Kaniswall"}}, {"geometry": {"type": "Point", "coordinates": [13.5598, 52.5447]}, "type": "Feature", "properties": {"id": 420, "name": "Berlin-Marzahn"}}, {"geometry": {"type": "Point", "coordinates": [13.615, 52.3803]}, "type": "Feature", "properties": {"id": 426, "name": "Berlin-Schm\u00f6ckwitz"}}, {"geometry": {"type": "Point", "coordinates": [13.5306, 52.3806]}, "type": "Feature", "properties": {"id": 427, "name": "Berlin-Sch\u00f6nefeld"}}, {"geometry": {"type": "Point", "coordinates": [13.3086, 52.5642]}, "type": "Feature", "properties": {"id": 430, "name": "Berlin-Tegel"}}, {"geometry": {"type": "Point", "coordinates": [13.2969, 52.6058]}, "type": "Feature", "properties": {"id": 432, "name": "Berlin-Tegeler Fliesstal"}}, {"geometry": {"type": "Point", "coordinates": [13.4019, 52.4672]}, "type": "Feature", "properties": {"id": 433, "name": "Berlin-Tempelhof"}}, {"geometry": {"type": "Point", "coordinates": [13.47, 52.4553]}, "type": "Feature", "properties": {"id": 434, "name": "Berlin-Treptow"}}, {"geometry": {"type": "Point", "coordinates": [8.0256, 47.8153]}, "type": "Feature", "properties": {"id": 440, "name": "Bernau-Goldbach"}}, {"geometry": {"type": "Point", "coordinates": [10.7447, 47.7386]}, "type": "Feature", "properties": {"id": 443, "name": "Bernbeuren-Prachtsried"}}, {"geometry": {"type": "Point", "coordinates": [11.7109, 51.8218]}, "type": "Feature", "properties": {"id": 445, "name": "Bernburg/Saale (Nord)"}}, {"geometry": {"type": "Point", "coordinates": [8.5397, 53.155]}, "type": "Feature", "properties": {"id": 446, "name": "Berne-Katjenb\u00fcttel"}}, {"geometry": {"type": "Point", "coordinates": [11.6483, 50.0414]}, "type": "Feature", "properties": {"id": 447, "name": "Berneck, Bad"}}, {"geometry": {"type": "Point", "coordinates": [7.0664, 49.9186]}, "type": "Feature", "properties": {"id": 450, "name": "Bernkastel-Kues"}}, {"geometry": {"type": "Point", "coordinates": [6.6867, 49.2639]}, "type": "Feature", "properties": {"id": 460, "name": "Berus"}}, {"geometry": {"type": "Point", "coordinates": [9.765, 48.1261]}, "type": "Feature", "properties": {"id": 474, "name": "Warthausen-Birkenhard"}}, {"geometry": {"type": "Point", "coordinates": [10.8119, 48.5347]}, "type": "Feature", "properties": {"id": 475, "name": "Biberbach-Markt"}}, {"geometry": {"type": "Point", "coordinates": [8.4183, 49.6894]}, "type": "Feature", "properties": {"id": 476, "name": "Biblis"}}, {"geometry": {"type": "Point", "coordinates": [9.2894, 50.2439]}, "type": "Feature", "properties": {"id": 479, "name": "W\u00e4chtersbach"}}, {"geometry": {"type": "Point", "coordinates": [8.5269, 50.9197]}, "type": "Feature", "properties": {"id": 480, "name": "Biedenkopf"}}, {"geometry": {"type": "Point", "coordinates": [8.55, 50.8833]}, "type": "Feature", "properties": {"id": 482, "name": "Biedenkopf-Eckelshausen"}}, {"geometry": {"type": "Point", "coordinates": [8.5933, 51.9394]}, "type": "Feature", "properties": {"id": 488, "name": "Bielefeld-Sennestadt"}}, {"geometry": {"type": "Point", "coordinates": [10.4903, 53.1172]}, "type": "Feature", "properties": {"id": 490, "name": "Bienenb\u00fcttel-Bargdorf"}}, {"geometry": {"type": "Point", "coordinates": [8.3108, 47.745]}, "type": "Feature", "properties": {"id": 498, "name": "\u00dchlingen-Birkendorf"}}, {"geometry": {"type": "Point", "coordinates": [9.4894, 49.8758]}, "type": "Feature", "properties": {"id": 502, "name": "Bischbrunn"}}, {"geometry": {"type": "Point", "coordinates": [13.9717, 51.7981]}, "type": "Feature", "properties": {"id": 504, "name": "Bischdorf, Kreis Oberspreewald"}}, {"geometry": {"type": "Point", "coordinates": [10.0944, 51.4281]}, "type": "Feature", "properties": {"id": 505, "name": "Bischhagen"}}, {"geometry": {"type": "Point", "coordinates": [11.7936, 50.0511]}, "type": "Feature", "properties": {"id": 509, "name": "Bischofsgr\u00fcn (Hohe Reuth)"}}, {"geometry": {"type": "Point", "coordinates": [12.925, 47.6522]}, "type": "Feature", "properties": {"id": 515, "name": "Bischofswiesen-Loipl"}}, {"geometry": {"type": "Point", "coordinates": [12.9417, 47.6872]}, "type": "Feature", "properties": {"id": 516, "name": "Bischofswiesen-Winkl"}}, {"geometry": {"type": "Point", "coordinates": [10.025, 53.0961]}, "type": "Feature", "properties": {"id": 518, "name": "Bispingen-H\u00fctzel"}}, {"geometry": {"type": "Point", "coordinates": [8.2508, 52.2842]}, "type": "Feature", "properties": {"id": 521, "name": "Bissendorf-Schledehausen"}}, {"geometry": {"type": "Point", "coordinates": [10.6283, 48.7092]}, "type": "Feature", "properties": {"id": 522, "name": "Bissingen (Kl\u00e4ranlage)"}}, {"geometry": {"type": "Point", "coordinates": [6.5328, 49.98]}, "type": "Feature", "properties": {"id": 523, "name": "Bitburg"}}, {"geometry": {"type": "Point", "coordinates": [9.1017, 48.2444]}, "type": "Feature", "properties": {"id": 525, "name": "Bitz"}}, {"geometry": {"type": "Point", "coordinates": [10.9714, 51.7901]}, "type": "Feature", "properties": {"id": 527, "name": "Blankenburg/Harz"}}, {"geometry": {"type": "Point", "coordinates": [6.7361, 50.3847]}, "type": "Feature", "properties": {"id": 533, "name": "Blankenheim-Ahrh\u00fctte"}}, {"geometry": {"type": "Point", "coordinates": [7.6333, 48.05]}, "type": "Feature", "properties": {"id": 534, "name": "Blankenhornsberg"}}, {"geometry": {"type": "Point", "coordinates": [7.3047, 50.0353]}, "type": "Feature", "properties": {"id": 535, "name": "Blankenrath"}}, {"geometry": {"type": "Point", "coordinates": [10.8522, 53.24]}, "type": "Feature", "properties": {"id": 542, "name": "Bleckede-Walmsburg"}}, {"geometry": {"type": "Point", "coordinates": [11.7978, 50.9042]}, "type": "Feature", "properties": {"id": 550, "name": "Bobeck"}}, {"geometry": {"type": "Point", "coordinates": [11.9953, 50.3886]}, "type": "Feature", "properties": {"id": 551, "name": "Weischlitz-Heinersgr\u00fcn"}}, {"geometry": {"type": "Point", "coordinates": [10.8214, 48.2639]}, "type": "Feature", "properties": {"id": 552, "name": "Bobingen"}}, {"geometry": {"type": "Point", "coordinates": [6.6114, 51.8394]}, "type": "Feature", "properties": {"id": 553, "name": "Bocholt (Marienschule)"}}, {"geometry": {"type": "Point", "coordinates": [6.5361, 51.8311]}, "type": "Feature", "properties": {"id": 554, "name": "Bocholt"}}, {"geometry": {"type": "Point", "coordinates": [7.27, 51.4789]}, "type": "Feature", "properties": {"id": 555, "name": "Bochum"}}, {"geometry": {"type": "Point", "coordinates": [10.1319, 52.0147]}, "type": "Feature", "properties": {"id": 560, "name": "Bockenem"}}, {"geometry": {"type": "Point", "coordinates": [7.9664, 53.3667]}, "type": "Feature", "properties": {"id": 561, "name": "Bockhorn-Grabstede"}}, {"geometry": {"type": "Point", "coordinates": [12.0031, 48.3283]}, "type": "Feature", "properties": {"id": 562, "name": "Bockhorn/Oberbayern -Gr\u00fcnbach"}}, {"geometry": {"type": "Point", "coordinates": [9.5131, 51.6956]}, "type": "Feature", "properties": {"id": 567, "name": "Bodenfelde-Amelith"}}, {"geometry": {"type": "Point", "coordinates": [12.24, 49.2986]}, "type": "Feature", "properties": {"id": 572, "name": "Bodenw\u00f6hr-Altenschwand"}}, {"geometry": {"type": "Point", "coordinates": [11.9981, 53.9853]}, "type": "Feature", "properties": {"id": 581, "name": "Gro\u00df B\u00f6lkow-Matersen"}}, {"geometry": {"type": "Point", "coordinates": [9.0872, 49.0367]}, "type": "Feature", "properties": {"id": 582, "name": "B\u00f6nnigheim"}}, {"geometry": {"type": "Point", "coordinates": [7.0964, 49.7056]}, "type": "Feature", "properties": {"id": 583, "name": "B\u00f6rfink-Thranenweier"}}, {"geometry": {"type": "Point", "coordinates": [12.745, 48.8847]}, "type": "Feature", "properties": {"id": 589, "name": "Bogen-Pfelling"}}, {"geometry": {"type": "Point", "coordinates": [10.6875, 53.3908]}, "type": "Feature", "properties": {"id": 591, "name": "Boizenburg"}}, {"geometry": {"type": "Point", "coordinates": [9.6231, 48.6397]}, "type": "Feature", "properties": {"id": 593, "name": "Boll, Bad"}}, {"geometry": {"type": "Point", "coordinates": [14.0358, 52.605]}, "type": "Feature", "properties": {"id": 595, "name": "Oberbarnim-Grunow"}}, {"geometry": {"type": "Point", "coordinates": [11.1906, 54.0028]}, "type": "Feature", "properties": {"id": 596, "name": "Boltenhagen"}}, {"geometry": {"type": "Point", "coordinates": [7.0847, 50.7297]}, "type": "Feature", "properties": {"id": 598, "name": "Bonn"}}, {"geometry": {"type": "Point", "coordinates": [7.1475, 50.7067]}, "type": "Feature", "properties": {"id": 599, "name": "Bonn-Friesdorf"}}, {"geometry": {"type": "Point", "coordinates": [7.0448, 50.6965]}, "type": "Feature", "properties": {"id": 601, "name": "Bonn-Hardth\u00f6he"}}, {"geometry": {"type": "Point", "coordinates": [7.1, 50.7167]}, "type": "Feature", "properties": {"id": 602, "name": "Bonn-Poppelsdorf"}}, {"geometry": {"type": "Point", "coordinates": [7.1931, 50.7347]}, "type": "Feature", "properties": {"id": 603, "name": "Bonn-Roleber"}}, {"geometry": {"type": "Point", "coordinates": [10.1976, 48.0791]}, "type": "Feature", "properties": {"id": 606, "name": "Boos"}}, {"geometry": {"type": "Point", "coordinates": [10.3644, 48.8472]}, "type": "Feature", "properties": {"id": 608, "name": "Bopfingen-Flochberg"}}, {"geometry": {"type": "Point", "coordinates": [7.6361, 50.2033]}, "type": "Feature", "properties": {"id": 610, "name": "Boppard-Salzig, Bad"}}, {"geometry": {"type": "Point", "coordinates": [10.05, 54.1833]}, "type": "Feature", "properties": {"id": 611, "name": "Bordesholm"}}, {"geometry": {"type": "Point", "coordinates": [9.2325, 51.5675]}, "type": "Feature", "properties": {"id": 613, "name": "Borgentreich"}}, {"geometry": {"type": "Point", "coordinates": [6.8861, 51.8728]}, "type": "Feature", "properties": {"id": 617, "name": "Borken in Westfalen"}}, {"geometry": {"type": "Point", "coordinates": [6.6703, 53.5789]}, "type": "Feature", "properties": {"id": 619, "name": "Borkum-S\u00fcderstra\u00dfe"}}, {"geometry": {"type": "Point", "coordinates": [6.3667, 53.8]}, "type": "Feature", "properties": {"id": 620, "name": "Borkumriff"}}, {"geometry": {"type": "Point", "coordinates": [6.8261, 50.3128]}, "type": "Feature", "properties": {"id": 621, "name": "Borler"}}, {"geometry": {"type": "Point", "coordinates": [11.465, 52.3742]}, "type": "Feature", "properties": {"id": 622, "name": "Born"}}, {"geometry": {"type": "Point", "coordinates": [10.1833, 53.8333]}, "type": "Feature", "properties": {"id": 628, "name": "Borstel \u00fcber Bad Oldesloe"}}, {"geometry": {"type": "Point", "coordinates": [11.4053, 52.0192]}, "type": "Feature", "properties": {"id": 630, "name": "Bottmersdorf-Klein Germersleben"}}, {"geometry": {"type": "Point", "coordinates": [14.5681, 51.4031]}, "type": "Feature", "properties": {"id": 633, "name": "Boxberg"}}, {"geometry": {"type": "Point", "coordinates": [12.7253, 50.8697]}, "type": "Feature", "properties": {"id": 640, "name": "Limbach-Oberfrohna-Br\u00e4unsdorf"}}, {"geometry": {"type": "Point", "coordinates": [8.4969, 53.3517]}, "type": "Feature", "properties": {"id": 642, "name": "Brake"}}, {"geometry": {"type": "Point", "coordinates": [8.4539, 53.2975]}, "type": "Feature", "properties": {"id": 643, "name": "Brake-S\u00fcderfeld"}}, {"geometry": {"type": "Point", "coordinates": [9.1739, 51.7053]}, "type": "Feature", "properties": {"id": 644, "name": "Brakel"}}, {"geometry": {"type": "Point", "coordinates": [11.9126, 49.9589]}, "type": "Feature", "properties": {"id": 647, "name": "Brand/Oberpfalz"}}, {"geometry": {"type": "Point", "coordinates": [12.45, 52.4333]}, "type": "Feature", "properties": {"id": 649, "name": "Brandenburg-Briest"}}, {"geometry": {"type": "Point", "coordinates": [10.7719, 49.5364]}, "type": "Feature", "properties": {"id": 652, "name": "Hagenb\u00fcchach"}}, {"geometry": {"type": "Point", "coordinates": [12.1089, 47.7239]}, "type": "Feature", "properties": {"id": 653, "name": "Brannenburg-Degerndorf"}}, {"geometry": {"type": "Point", "coordinates": [10.6021, 51.7234]}, "type": "Feature", "properties": {"id": 656, "name": "Braunlage"}}, {"geometry": {"type": "Point", "coordinates": [10.4464, 52.2914]}, "type": "Feature", "properties": {"id": 662, "name": "Braunschweig"}}, {"geometry": {"type": "Point", "coordinates": [7.6175, 52.9561]}, "type": "Feature", "properties": {"id": 668, "name": "Breddenberg"}}, {"geometry": {"type": "Point", "coordinates": [11.8025, 53.0047]}, "type": "Feature", "properties": {"id": 672, "name": "Breese"}}, {"geometry": {"type": "Point", "coordinates": [7.5844, 48.0222]}, "type": "Feature", "properties": {"id": 674, "name": "Breisach"}}, {"geometry": {"type": "Point", "coordinates": [10.3647, 48.1264]}, "type": "Feature", "properties": {"id": 677, "name": "Breitenbrunn-F\u00fcrbuch"}}, {"geometry": {"type": "Point", "coordinates": [8.0763, 47.9385]}, "type": "Feature", "properties": {"id": 684, "name": "Breitnau"}}, {"geometry": {"type": "Point", "coordinates": [9.4292, 49.9028]}, "type": "Feature", "properties": {"id": 685, "name": "Breitsol"}}, {"geometry": {"type": "Point", "coordinates": [8.8264, 53.0958]}, "type": "Feature", "properties": {"id": 690, "name": "Bremen (B\u00fcrgerpark)"}}, {"geometry": {"type": "Point", "coordinates": [8.7985, 53.0445]}, "type": "Feature", "properties": {"id": 691, "name": "Bremen"}}, {"geometry": {"type": "Point", "coordinates": [8.5758, 53.5331]}, "type": "Feature", "properties": {"id": 701, "name": "Bremerhaven"}}, {"geometry": {"type": "Point", "coordinates": [9.1564, 53.4794]}, "type": "Feature", "properties": {"id": 703, "name": "Bremerv\u00f6rde (A)"}}, {"geometry": {"type": "Point", "coordinates": [9.1389, 53.4451]}, "type": "Feature", "properties": {"id": 704, "name": "Bremerv\u00f6rde"}}, {"geometry": {"type": "Point", "coordinates": [9.1675, 53.5328]}, "type": "Feature", "properties": {"id": 705, "name": "Bremerv\u00f6rde-Niederochtenhausen"}}, {"geometry": {"type": "Point", "coordinates": [7.6619, 47.8867]}, "type": "Feature", "properties": {"id": 706, "name": "Eschbach"}}, {"geometry": {"type": "Point", "coordinates": [8.6989, 49.0253]}, "type": "Feature", "properties": {"id": 710, "name": "Bretten"}}, {"geometry": {"type": "Point", "coordinates": [14.2469, 52.3653]}, "type": "Feature", "properties": {"id": 714, "name": "Neu Madlitz"}}, {"geometry": {"type": "Point", "coordinates": [12.4356, 51.5167]}, "type": "Feature", "properties": {"id": 721, "name": "Sch\u00f6nw\u00f6lkau-Brinnis"}}, {"geometry": {"type": "Point", "coordinates": [10.6181, 51.7986]}, "type": "Feature", "properties": {"id": 722, "name": "Brocken"}}, {"geometry": {"type": "Point", "coordinates": [7.24, 50.1839]}, "type": "Feature", "properties": {"id": 723, "name": "Kail"}}, {"geometry": {"type": "Point", "coordinates": [8.6372, 49.1128]}, "type": "Feature", "properties": {"id": 731, "name": "Bruchsal-Heidelsheim"}}, {"geometry": {"type": "Point", "coordinates": [12.7333, 52.1692]}, "type": "Feature", "properties": {"id": 735, "name": "Br\u00fcck-G\u00f6mnigk"}}, {"geometry": {"type": "Point", "coordinates": [9.7511, 50.3053]}, "type": "Feature", "properties": {"id": 739, "name": "Br\u00fcckenau, Bad"}}, {"geometry": {"type": "Point", "coordinates": [11.7092, 53.7428]}, "type": "Feature", "properties": {"id": 741, "name": "Br\u00fcel"}}, {"geometry": {"type": "Point", "coordinates": [9.1414, 53.9194]}, "type": "Feature", "properties": {"id": 747, "name": "Brunsb\u00fcttel"}}, {"geometry": {"type": "Point", "coordinates": [10.2775, 49.3272]}, "type": "Feature", "properties": {"id": 752, "name": "Buch am Wald-Sch\u00f6nbronn"}}, {"geometry": {"type": "Point", "coordinates": [11.5025, 50.8703]}, "type": "Feature", "properties": {"id": 753, "name": "Bucha"}}, {"geometry": {"type": "Point", "coordinates": [9.3214, 49.5181]}, "type": "Feature", "properties": {"id": 755, "name": "Buchen, Kr. Neckar-Odenwald"}}, {"geometry": {"type": "Point", "coordinates": [7.9978, 47.9622]}, "type": "Feature", "properties": {"id": 757, "name": "Buchenbach"}}, {"geometry": {"type": "Point", "coordinates": [9.9367, 53.3567]}, "type": "Feature", "properties": {"id": 760, "name": "Buchholz in der Nordheide"}}, {"geometry": {"type": "Point", "coordinates": [7.0594, 50.1744]}, "type": "Feature", "properties": {"id": 766, "name": "B\u00fcchel (Flugplatz)"}}, {"geometry": {"type": "Point", "coordinates": [9.0889, 52.2817]}, "type": "Feature", "properties": {"id": 769, "name": "B\u00fcckeburg"}}, {"geometry": {"type": "Point", "coordinates": [9.9156, 49.0025]}, "type": "Feature", "properties": {"id": 774, "name": "B\u00fchlerzell"}}, {"geometry": {"type": "Point", "coordinates": [10.6322, 52.0]}, "type": "Feature", "properties": {"id": 775, "name": "B\u00fchne-Rimbeck"}}, {"geometry": {"type": "Point", "coordinates": [8.8667, 54.1333]}, "type": "Feature", "properties": {"id": 785, "name": "B\u00fcsum (A)"}}, {"geometry": {"type": "Point", "coordinates": [8.8583, 54.1194]}, "type": "Feature", "properties": {"id": 788, "name": "B\u00fcsum"}}, {"geometry": {"type": "Point", "coordinates": [9.8833, 49.6064]}, "type": "Feature", "properties": {"id": 789, "name": "B\u00fctthard"}}, {"geometry": {"type": "Point", "coordinates": [8.9369, 54.6325]}, "type": "Feature", "properties": {"id": 791, "name": "Bordelum"}}, {"geometry": {"type": "Point", "coordinates": [8.1253, 50.7556]}, "type": "Feature", "properties": {"id": 796, "name": "Burbach-W\u00fcrgendorf"}}, {"geometry": {"type": "Point", "coordinates": [11.8331, 52.3197]}, "type": "Feature", "properties": {"id": 797, "name": "Burg-Blumenthal"}}, {"geometry": {"type": "Point", "coordinates": [10.3258, 49.4469]}, "type": "Feature", "properties": {"id": 801, "name": "Burgbernheim"}}, {"geometry": {"type": "Point", "coordinates": [10.7897, 49.8269]}, "type": "Feature", "properties": {"id": 803, "name": "Burgebrach-Oberharnsbach"}}, {"geometry": {"type": "Point", "coordinates": [10.6433, 49.7447]}, "type": "Feature", "properties": {"id": 807, "name": "Schl\u00fcsselfeld (Kl\u00e4ranlage)"}}, {"geometry": {"type": "Point", "coordinates": [12.8097, 48.1867]}, "type": "Feature", "properties": {"id": 808, "name": "Mehring, Kr. Alt\u00f6tting-Niederholz"}}, {"geometry": {"type": "Point", "coordinates": [11.2322, 50.1425]}, "type": "Feature", "properties": {"id": 812, "name": "Burgkunstadt"}}, {"geometry": {"type": "Point", "coordinates": [10.7056, 50.1444]}, "type": "Feature", "properties": {"id": 814, "name": "Pfarrweisach-Lohr (Pegel)"}}, {"geometry": {"type": "Point", "coordinates": [11.6944, 51.5425]}, "type": "Feature", "properties": {"id": 815, "name": "Seegebiet Mansfelder Land-Dederstedt"}}, {"geometry": {"type": "Point", "coordinates": [12.8044, 50.9142]}, "type": "Feature", "properties": {"id": 816, "name": "Burgst\u00e4dt"}}, {"geometry": {"type": "Point", "coordinates": [8.8144, 51.0306]}, "type": "Feature", "properties": {"id": 817, "name": "Burgwald-Bottendorf"}}, {"geometry": {"type": "Point", "coordinates": [14.2369, 51.2067]}, "type": "Feature", "properties": {"id": 822, "name": "Burkau-Kleinh\u00e4nchen"}}, {"geometry": {"type": "Point", "coordinates": [8.3622, 53.5794]}, "type": "Feature", "properties": {"id": 827, "name": "Butjadingen-Burhave"}}, {"geometry": {"type": "Point", "coordinates": [12.5994, 52.4914]}, "type": "Feature", "properties": {"id": 831, "name": "Butzow"}}, {"geometry": {"type": "Point", "coordinates": [11.2911, 52.3928]}, "type": "Feature", "properties": {"id": 836, "name": "Calv\u00f6rde"}}, {"geometry": {"type": "Point", "coordinates": [8.2947, 50.2861]}, "type": "Feature", "properties": {"id": 837, "name": "Camberg, Bad"}}, {"geometry": {"type": "Point", "coordinates": [10.9289, 53.7575]}, "type": "Feature", "properties": {"id": 839, "name": "Carlow"}}, {"geometry": {"type": "Point", "coordinates": [12.6114, 50.4311]}, "type": "Feature", "properties": {"id": 840, "name": "Carlsfeld"}}, {"geometry": {"type": "Point", "coordinates": [13.2033, 53.3447]}, "type": "Feature", "properties": {"id": 845, "name": "Carpin-Serrahn"}}, {"geometry": {"type": "Point", "coordinates": [10.0725, 52.6144]}, "type": "Feature", "properties": {"id": 848, "name": "Celle (Stadt)"}}, {"geometry": {"type": "Point", "coordinates": [10.0294, 52.5958]}, "type": "Feature", "properties": {"id": 850, "name": "Celle"}}, {"geometry": {"type": "Point", "coordinates": [12.6042, 49.2503]}, "type": "Feature", "properties": {"id": 851, "name": "Pemfling-Pitzling"}}, {"geometry": {"type": "Point", "coordinates": [12.5667, 49.2122]}, "type": "Feature", "properties": {"id": 852, "name": "Cham-Wulfing"}}, {"geometry": {"type": "Point", "coordinates": [12.8719, 50.7911]}, "type": "Feature", "properties": {"id": 853, "name": "Chemnitz"}}, {"geometry": {"type": "Point", "coordinates": [12.5403, 47.8842]}, "type": "Feature", "properties": {"id": 856, "name": "Chieming"}}, {"geometry": {"type": "Point", "coordinates": [12.3947, 47.8675]}, "type": "Feature", "properties": {"id": 857, "name": "Chiemsee-Herrenchiemsee"}}, {"geometry": {"type": "Point", "coordinates": [10.3483, 51.7917]}, "type": "Feature", "properties": {"id": 863, "name": "Clausthal-Zellerfeld"}}, {"geometry": {"type": "Point", "coordinates": [8.0633, 52.8456]}, "type": "Feature", "properties": {"id": 865, "name": "Cloppenburg"}}, {"geometry": {"type": "Point", "coordinates": [10.9678, 50.3067]}, "type": "Feature", "properties": {"id": 867, "name": "Lautertal-Oberlauter"}}, {"geometry": {"type": "Point", "coordinates": [13.4306, 53.5228]}, "type": "Feature", "properties": {"id": 870, "name": "C\u00f6lpin"}}, {"geometry": {"type": "Point", "coordinates": [7.1583, 51.9617]}, "type": "Feature", "properties": {"id": 871, "name": "Coesfeld"}}, {"geometry": {"type": "Point", "coordinates": [11.6725, 52.2992]}, "type": "Feature", "properties": {"id": 874, "name": "Zielitz"}}, {"geometry": {"type": "Point", "coordinates": [14.2833, 51.7667]}, "type": "Feature", "properties": {"id": 879, "name": "Cottbus (Flugplatz)"}}, {"geometry": {"type": "Point", "coordinates": [14.3167, 51.7758]}, "type": "Feature", "properties": {"id": 880, "name": "Cottbus"}}, {"geometry": {"type": "Point", "coordinates": [10.0978, 49.0983]}, "type": "Feature", "properties": {"id": 881, "name": "Crailsheim-Alexandersreut"}}, {"geometry": {"type": "Point", "coordinates": [11.6158, 49.8444]}, "type": "Feature", "properties": {"id": 885, "name": "Creu\u00dfen-B\u00fchl"}}, {"geometry": {"type": "Point", "coordinates": [12.3819, 50.815]}, "type": "Feature", "properties": {"id": 888, "name": "Crimmitschau"}}, {"geometry": {"type": "Point", "coordinates": [8.7058, 53.8713]}, "type": "Feature", "properties": {"id": 891, "name": "Cuxhaven"}}, {"geometry": {"type": "Point", "coordinates": [10.8625, 51.0772]}, "type": "Feature", "properties": {"id": 896, "name": "Dachwig"}}, {"geometry": {"type": "Point", "coordinates": [6.5608, 50.4114]}, "type": "Feature", "properties": {"id": 902, "name": "Dahlem-Schmidtheim"}}, {"geometry": {"type": "Point", "coordinates": [11.0928, 54.2039]}, "type": "Feature", "properties": {"id": 906, "name": "Dahmesh\u00f6ved"}}, {"geometry": {"type": "Point", "coordinates": [8.6781, 49.8808]}, "type": "Feature", "properties": {"id": 917, "name": "Darmstadt"}}, {"geometry": {"type": "Point", "coordinates": [8.6806, 49.8708]}, "type": "Feature", "properties": {"id": 919, "name": "Darmstadt-Botanischer Garten"}}, {"geometry": {"type": "Point", "coordinates": [11.0558, 48.39]}, "type": "Feature", "properties": {"id": 922, "name": "Dasing (Kl\u00e4ranlage)"}}, {"geometry": {"type": "Point", "coordinates": [9.6769, 51.8011]}, "type": "Feature", "properties": {"id": 923, "name": "Dassel"}}, {"geometry": {"type": "Point", "coordinates": [9.4106, 47.8006]}, "type": "Feature", "properties": {"id": 931, "name": "Deggenhausertal-Azenweiler"}}, {"geometry": {"type": "Point", "coordinates": [11.5764, 48.0358]}, "type": "Feature", "properties": {"id": 933, "name": "Deisenhofen, Kreis M\u00fcnchen"}}, {"geometry": {"type": "Point", "coordinates": [8.5653, 51.7836]}, "type": "Feature", "properties": {"id": 934, "name": "Delbr\u00fcck"}}, {"geometry": {"type": "Point", "coordinates": [12.9771, 53.9164]}, "type": "Feature", "properties": {"id": 939, "name": "Demmin"}}, {"geometry": {"type": "Point", "coordinates": [11.45, 48.9167]}, "type": "Feature", "properties": {"id": 940, "name": "Denkendorf"}}, {"geometry": {"type": "Point", "coordinates": [6.6, 50.1253]}, "type": "Feature", "properties": {"id": 942, "name": "Densborn"}}, {"geometry": {"type": "Point", "coordinates": [10.1186, 50.7161]}, "type": "Feature", "properties": {"id": 945, "name": "Dermbach"}}, {"geometry": {"type": "Point", "coordinates": [12.2517, 51.8511]}, "type": "Feature", "properties": {"id": 948, "name": "Dessau"}}, {"geometry": {"type": "Point", "coordinates": [7.0539, 49.7617]}, "type": "Feature", "properties": {"id": 953, "name": "Deuselbach"}}, {"geometry": {"type": "Point", "coordinates": [7.45, 54.1667]}, "type": "Feature", "properties": {"id": 954, "name": "UFS Deutsche Bucht"}}, {"geometry": {"type": "Point", "coordinates": [8.8489, 49.8978]}, "type": "Feature", "properties": {"id": 955, "name": "Dieburg"}}, {"geometry": {"type": "Point", "coordinates": [8.7672, 51.3611]}, "type": "Feature", "properties": {"id": 958, "name": "Diemelsee-Rhenegge"}}, {"geometry": {"type": "Point", "coordinates": [9.0039, 51.4742]}, "type": "Feature", "properties": {"id": 961, "name": "Diemelstadt-Rhoden"}}, {"geometry": {"type": "Point", "coordinates": [11.1697, 50.8017]}, "type": "Feature", "properties": {"id": 962, "name": "Ilmtal-Dienstedt"}}, {"geometry": {"type": "Point", "coordinates": [8.3422, 52.5881]}, "type": "Feature", "properties": {"id": 963, "name": "Diepholz"}}, {"geometry": {"type": "Point", "coordinates": [10.8828, 52.7519]}, "type": "Feature", "properties": {"id": 966, "name": "Diesdorf"}}, {"geometry": {"type": "Point", "coordinates": [10.6728, 49.4161]}, "type": "Feature", "properties": {"id": 970, "name": "Dietenhofen"}}, {"geometry": {"type": "Point", "coordinates": [11.0453, 51.5306]}, "type": "Feature", "properties": {"id": 974, "name": "S\u00fcdharz-Dietersdorf"}}, {"geometry": {"type": "Point", "coordinates": [8.3425, 50.8553]}, "type": "Feature", "properties": {"id": 977, "name": "Dietzh\u00f6lztal-Mandeln"}}, {"geometry": {"type": "Point", "coordinates": [8.0483, 50.3572]}, "type": "Feature", "properties": {"id": 978, "name": "Holzheim bei Diez"}}, {"geometry": {"type": "Point", "coordinates": [8.2619, 50.7311]}, "type": "Feature", "properties": {"id": 979, "name": "Dillenburg"}}, {"geometry": {"type": "Point", "coordinates": [10.4997, 48.5711]}, "type": "Feature", "properties": {"id": 982, "name": "Dillingen/Donau"}}, {"geometry": {"type": "Point", "coordinates": [10.5597, 48.5561]}, "type": "Feature", "properties": {"id": 983, "name": "Dillingen/Donau-Fristingen"}}, {"geometry": {"type": "Point", "coordinates": [10.2889, 49.0503]}, "type": "Feature", "properties": {"id": 985, "name": "Dinkelsb\u00fchl-Oberwinstetten"}}, {"geometry": {"type": "Point", "coordinates": [8.1133, 52.6744]}, "type": "Feature", "properties": {"id": 988, "name": "Dinklage"}}, {"geometry": {"type": "Point", "coordinates": [6.7847, 51.5764]}, "type": "Feature", "properties": {"id": 989, "name": "Dinslaken"}}, {"geometry": {"type": "Point", "coordinates": [13.7128, 50.9167]}, "type": "Feature", "properties": {"id": 991, "name": "Dippoldiswalde-Reinberg"}}, {"geometry": {"type": "Point", "coordinates": [11.8469, 54.1458]}, "type": "Feature", "properties": {"id": 1000, "name": "Doberan, Bad-Heiligendamm"}}, {"geometry": {"type": "Point", "coordinates": [13.5744, 51.645]}, "type": "Feature", "properties": {"id": 1001, "name": "Doberlug-Kirchhain"}}, {"geometry": {"type": "Point", "coordinates": [7.3217, 52.9747]}, "type": "Feature", "properties": {"id": 1010, "name": "D\u00f6rpen (Kl\u00e4ranlage)"}}, {"geometry": {"type": "Point", "coordinates": [7.7413, 49.6017]}, "type": "Feature", "properties": {"id": 1011, "name": "D\u00f6rrmoschel-Felsbergerhof"}}, {"geometry": {"type": "Point", "coordinates": [8.1694, 47.6025]}, "type": "Feature", "properties": {"id": 1013, "name": "Dogern"}}, {"geometry": {"type": "Point", "coordinates": [7.2191, 53.2288]}, "type": "Feature", "properties": {"id": 1014, "name": "Dollart-Kanalpolder"}}, {"geometry": {"type": "Point", "coordinates": [8.5056, 47.9431]}, "type": "Feature", "properties": {"id": 1018, "name": "Donaueschingen"}}, {"geometry": {"type": "Point", "coordinates": [12.1628, 48.2742]}, "type": "Feature", "properties": {"id": 1023, "name": "Dorfen (Kl\u00e4ranlage)"}}, {"geometry": {"type": "Point", "coordinates": [6.8508, 51.1156]}, "type": "Feature", "properties": {"id": 1024, "name": "Dormagen-Zons"}}, {"geometry": {"type": "Point", "coordinates": [7.4297, 53.6458]}, "type": "Feature", "properties": {"id": 1030, "name": "Dornum"}}, {"geometry": {"type": "Point", "coordinates": [7.5353, 51.5133]}, "type": "Feature", "properties": {"id": 1032, "name": "Dortmund"}}, {"geometry": {"type": "Point", "coordinates": [9.7981, 51.5261]}, "type": "Feature", "properties": {"id": 1039, "name": "Dransfeld-Ossenfeld"}}, {"geometry": {"type": "Point", "coordinates": [13.0131, 50.6742]}, "type": "Feature", "properties": {"id": 1040, "name": "Drebach"}}, {"geometry": {"type": "Point", "coordinates": [14.2144, 51.6578]}, "type": "Feature", "properties": {"id": 1041, "name": "Drebkau"}}, {"geometry": {"type": "Point", "coordinates": [7.7528, 51.7585]}, "type": "Feature", "properties": {"id": 1046, "name": "Drensteinfurt"}}, {"geometry": {"type": "Point", "coordinates": [13.7542, 51.1278]}, "type": "Feature", "properties": {"id": 1048, "name": "Dresden-Klotzsche"}}, {"geometry": {"type": "Point", "coordinates": [13.8469, 51.0219]}, "type": "Feature", "properties": {"id": 1050, "name": "Dresden-Hosterwitz"}}, {"geometry": {"type": "Point", "coordinates": [13.7736, 51.0239]}, "type": "Feature", "properties": {"id": 1051, "name": "Dresden-Strehlen"}}, {"geometry": {"type": "Point", "coordinates": [12.1633, 52.2169]}, "type": "Feature", "properties": {"id": 1052, "name": "Drewitz bei Burg"}}, {"geometry": {"type": "Point", "coordinates": [8.1811, 50.6314]}, "type": "Feature", "properties": {"id": 1055, "name": "Driedorf"}}, {"geometry": {"type": "Point", "coordinates": [9.3781, 53.7119]}, "type": "Feature", "properties": {"id": 1056, "name": "Drochtersen"}}, {"geometry": {"type": "Point", "coordinates": [12.3856, 51.9264]}, "type": "Feature", "properties": {"id": 1067, "name": "D\u00fcben"}}, {"geometry": {"type": "Point", "coordinates": [8.1931, 49.4717]}, "type": "Feature", "properties": {"id": 1072, "name": "D\u00fcrkheim, Bad"}}, {"geometry": {"type": "Point", "coordinates": [6.7686, 51.2958]}, "type": "Feature", "properties": {"id": 1078, "name": "D\u00fcsseldorf"}}, {"geometry": {"type": "Point", "coordinates": [6.7581, 51.2011]}, "type": "Feature", "properties": {"id": 1079, "name": "D\u00fcsseldorf-S\u00fcdfriedhof"}}, {"geometry": {"type": "Point", "coordinates": [7.9939, 48.5017]}, "type": "Feature", "properties": {"id": 1089, "name": "Durbach-Ebersweier"}}, {"geometry": {"type": "Point", "coordinates": [8.9583, 49.46]}, "type": "Feature", "properties": {"id": 1093, "name": "Eberbach (LUBW)"}}, {"geometry": {"type": "Point", "coordinates": [11.2, 47.7956]}, "type": "Feature", "properties": {"id": 1094, "name": "Eberfing"}}, {"geometry": {"type": "Point", "coordinates": [10.1117, 51.6014]}, "type": "Feature", "properties": {"id": 1095, "name": "Krebeck-Renshausen"}}, {"geometry": {"type": "Point", "coordinates": [11.1889, 49.7506]}, "type": "Feature", "properties": {"id": 1097, "name": "Pretzfeld-Hagenbach"}}, {"geometry": {"type": "Point", "coordinates": [11.9869, 48.1]}, "type": "Feature", "properties": {"id": 1103, "name": "Ebersberg-Halbing"}}, {"geometry": {"type": "Point", "coordinates": [10.4989, 49.8519]}, "type": "Feature", "properties": {"id": 1107, "name": "Ebrach"}}, {"geometry": {"type": "Point", "coordinates": [10.5769, 51.8419]}, "type": "Feature", "properties": {"id": 1118, "name": "Eckertalsperre"}}, {"geometry": {"type": "Point", "coordinates": [11.6972, 49.5767]}, "type": "Feature", "properties": {"id": 1119, "name": "Edelsfeld"}}, {"geometry": {"type": "Point", "coordinates": [9.0592, 51.1819]}, "type": "Feature", "properties": {"id": 1122, "name": "Edertal-Edersee"}}, {"geometry": {"type": "Point", "coordinates": [9.3647, 54.6283]}, "type": "Feature", "properties": {"id": 1130, "name": "Eggebek"}}, {"geometry": {"type": "Point", "coordinates": [12.7283, 48.3953]}, "type": "Feature", "properties": {"id": 1132, "name": "Eggenfelden"}}, {"geometry": {"type": "Point", "coordinates": [13.2528, 48.6856]}, "type": "Feature", "properties": {"id": 1139, "name": "Eging am See-Burgstall"}}, {"geometry": {"type": "Point", "coordinates": [11.5589, 47.9319]}, "type": "Feature", "properties": {"id": 1140, "name": "Egling/Isar-Attenham"}}, {"geometry": {"type": "Point", "coordinates": [10.5383, 49.0889]}, "type": "Feature", "properties": {"id": 1143, "name": "Ehingen, Kreis Ansbach"}}, {"geometry": {"type": "Point", "coordinates": [12.6003, 50.5311]}, "type": "Feature", "properties": {"id": 1153, "name": "Eibenstock (Talsperre)"}}, {"geometry": {"type": "Point", "coordinates": [12.8531, 48.6356]}, "type": "Feature", "properties": {"id": 1158, "name": "Eichendorf"}}, {"geometry": {"type": "Point", "coordinates": [11.2347, 48.8778]}, "type": "Feature", "properties": {"id": 1161, "name": "Eichst\u00e4tt-Landershofen"}}, {"geometry": {"type": "Point", "coordinates": [7.7378, 48.0919]}, "type": "Feature", "properties": {"id": 1162, "name": "Eichstetten"}}, {"geometry": {"type": "Point", "coordinates": [12.6692, 51.46]}, "type": "Feature", "properties": {"id": 1166, "name": "Eilenburg"}}, {"geometry": {"type": "Point", "coordinates": [9.7278, 51.8867]}, "type": "Feature", "properties": {"id": 1170, "name": "Eimen-Vorwohle"}}, {"geometry": {"type": "Point", "coordinates": [9.8883, 51.8203]}, "type": "Feature", "properties": {"id": 1172, "name": "Einbeck"}}, {"geometry": {"type": "Point", "coordinates": [9.9183, 51.7992]}, "type": "Feature", "properties": {"id": 1173, "name": "Einbeck-Salzderhelden"}}, {"geometry": {"type": "Point", "coordinates": [8.2693, 47.9634]}, "type": "Feature", "properties": {"id": 1176, "name": "Eisenbach"}}, {"geometry": {"type": "Point", "coordinates": [14.59, 52.1275]}, "type": "Feature", "properties": {"id": 1178, "name": "Eisenh\u00fcttenstadt"}}, {"geometry": {"type": "Point", "coordinates": [11.5719, 51.5042]}, "type": "Feature", "properties": {"id": 1182, "name": "Eisleben-Helfta"}}, {"geometry": {"type": "Point", "coordinates": [8.1167, 54.0]}, "type": "Feature", "properties": {"id": 1185, "name": "UFS Elbe 1"}}, {"geometry": {"type": "Point", "coordinates": [10.1312, 48.9895]}, "type": "Feature", "properties": {"id": 1197, "name": "Ellwangen-Rindelbach"}}, {"geometry": {"type": "Point", "coordinates": [9.0105, 54.0692]}, "type": "Feature", "properties": {"id": 1200, "name": "Elpersb\u00fcttel"}}, {"geometry": {"type": "Point", "coordinates": [8.4622, 53.2361]}, "type": "Feature", "properties": {"id": 1204, "name": "Elsfleth"}}, {"geometry": {"type": "Point", "coordinates": [12.2736, 50.2706]}, "type": "Feature", "properties": {"id": 1207, "name": "Elster, Bad-Sohl"}}, {"geometry": {"type": "Point", "coordinates": [13.505, 51.4506]}, "type": "Feature", "properties": {"id": 1210, "name": "Elsterwerda"}}, {"geometry": {"type": "Point", "coordinates": [8.1086, 48.2011]}, "type": "Feature", "properties": {"id": 1214, "name": "Elzach-Fisnacht"}}, {"geometry": {"type": "Point", "coordinates": [9.2428, 49.425]}, "type": "Feature", "properties": {"id": 1216, "name": "Elztal-Rittersbach"}}, {"geometry": {"type": "Point", "coordinates": [7.1917, 53.3464]}, "type": "Feature", "properties": {"id": 1219, "name": "Emden-Nesserland"}}, {"geometry": {"type": "Point", "coordinates": [7.2244, 53.3722]}, "type": "Feature", "properties": {"id": 1221, "name": "Emden-Wolthusen"}}, {"geometry": {"type": "Point", "coordinates": [6.9008, 52.5981]}, "type": "Feature", "properties": {"id": 1223, "name": "Ringe-Gro\u00dfringe"}}, {"geometry": {"type": "Point", "coordinates": [7.8347, 48.1375]}, "type": "Feature", "properties": {"id": 1224, "name": "Emmendingen-Mundingen"}}, {"geometry": {"type": "Point", "coordinates": [8.8583, 47.9319]}, "type": "Feature", "properties": {"id": 1227, "name": "Emmingen-Liptingen"}}, {"geometry": {"type": "Point", "coordinates": [6.3458, 54.165]}, "type": "Feature", "properties": {"id": 1228, "name": "UFS TW Ems"}}, {"geometry": {"type": "Point", "coordinates": [7.5631, 52.1697]}, "type": "Feature", "properties": {"id": 1232, "name": "Emsdetten"}}, {"geometry": {"type": "Point", "coordinates": [12.2978, 47.9044]}, "type": "Feature", "properties": {"id": 1235, "name": "Endorf, Bad"}}, {"geometry": {"type": "Point", "coordinates": [12.5069, 48.0889]}, "type": "Feature", "properties": {"id": 1237, "name": "Tacherting-Spreit"}}, {"geometry": {"type": "Point", "coordinates": [7.4258, 50.9897]}, "type": "Feature", "properties": {"id": 1238, "name": "Engelskirchen"}}, {"geometry": {"type": "Point", "coordinates": [8.7683, 47.8525]}, "type": "Feature", "properties": {"id": 1239, "name": "Engen/Hegau"}}, {"geometry": {"type": "Point", "coordinates": [8.5225, 52.15]}, "type": "Feature", "properties": {"id": 1241, "name": "Enger"}}, {"geometry": {"type": "Point", "coordinates": [9.3039, 48.4744]}, "type": "Feature", "properties": {"id": 1243, "name": "Eningen"}}, {"geometry": {"type": "Point", "coordinates": [7.3153, 51.305]}, "type": "Feature", "properties": {"id": 1245, "name": "Ennepetal-Milspe"}}, {"geometry": {"type": "Point", "coordinates": [11.8714, 49.3531]}, "type": "Feature", "properties": {"id": 1248, "name": "Ensdorf/Oberpfalz -Hirschwald"}}, {"geometry": {"type": "Point", "coordinates": [8.8522, 49.1664]}, "type": "Feature", "properties": {"id": 1255, "name": "Eppingen-Elsenz"}}, {"geometry": {"type": "Point", "coordinates": [12.0472, 49.8397]}, "type": "Feature", "properties": {"id": 1259, "name": "Erbendorf"}}, {"geometry": {"type": "Point", "coordinates": [7.1, 49.7333]}, "type": "Feature", "properties": {"id": 1260, "name": "Erbeskopf"}}, {"geometry": {"type": "Point", "coordinates": [11.944, 48.3192]}, "type": "Feature", "properties": {"id": 1261, "name": "Erding"}}, {"geometry": {"type": "Point", "coordinates": [11.8131, 48.3475]}, "type": "Feature", "properties": {"id": 1262, "name": "M\u00fcnchen-Flughafen"}}, {"geometry": {"type": "Point", "coordinates": [9.3161, 54.2989]}, "type": "Feature", "properties": {"id": 1266, "name": "Erfde"}}, {"geometry": {"type": "Point", "coordinates": [10.9606, 50.9828]}, "type": "Feature", "properties": {"id": 1270, "name": "Erfurt-Weimar"}}, {"geometry": {"type": "Point", "coordinates": [13.1414, 48.3017]}, "type": "Feature", "properties": {"id": 1275, "name": "Ering"}}, {"geometry": {"type": "Point", "coordinates": [9.5392, 47.6358]}, "type": "Feature", "properties": {"id": 1276, "name": "Eriskirch-Mariabrunn"}}, {"geometry": {"type": "Point", "coordinates": [6.3286, 51.0711]}, "type": "Feature", "properties": {"id": 1277, "name": "Erkelenz"}}, {"geometry": {"type": "Point", "coordinates": [10.7178, 52.2444]}, "type": "Feature", "properties": {"id": 1278, "name": "Cremlingen-Destedt"}}, {"geometry": {"type": "Point", "coordinates": [11.0072, 49.6494]}, "type": "Feature", "properties": {"id": 1279, "name": "M\u00f6hrendorf-Kleinseebach"}}, {"geometry": {"type": "Point", "coordinates": [12.3833, 50.3042]}, "type": "Feature", "properties": {"id": 1282, "name": "Erlbach-Eubabrunn"}}, {"geometry": {"type": "Point", "coordinates": [9.5, 49.7]}, "type": "Feature", "properties": {"id": 1284, "name": "Ernsthof"}}, {"geometry": {"type": "Point", "coordinates": [8.4669, 48.1867]}, "type": "Feature", "properties": {"id": 1290, "name": "Eschbronn-Mariazell"}}, {"geometry": {"type": "Point", "coordinates": [11.8236, 49.7533]}, "type": "Feature", "properties": {"id": 1292, "name": "Eschenbach/Oberpfalz"}}, {"geometry": {"type": "Point", "coordinates": [10.0636, 51.1833]}, "type": "Feature", "properties": {"id": 1297, "name": "Eschwege"}}, {"geometry": {"type": "Point", "coordinates": [7.6094, 53.6492]}, "type": "Feature", "properties": {"id": 1299, "name": "Esens"}}, {"geometry": {"type": "Point", "coordinates": [8.1561, 51.2539]}, "type": "Feature", "properties": {"id": 1300, "name": "Eslohe"}}, {"geometry": {"type": "Point", "coordinates": [6.9675, 51.4039]}, "type": "Feature", "properties": {"id": 1303, "name": "Essen-Bredeney"}}, {"geometry": {"type": "Point", "coordinates": [8.3931, 52.3322]}, "type": "Feature", "properties": {"id": 1304, "name": "Essen-Brockhausen, Bad"}}, {"geometry": {"type": "Point", "coordinates": [12.2151, 48.6115]}, "type": "Feature", "properties": {"id": 1309, "name": "Essenbach"}}, {"geometry": {"type": "Point", "coordinates": [10.9614, 47.5664]}, "type": "Feature", "properties": {"id": 1313, "name": "Ettal-Linderhof"}}, {"geometry": {"type": "Point", "coordinates": [8.3833, 48.9256]}, "type": "Feature", "properties": {"id": 1315, "name": "Ettlingen-Ettlingenweier"}}, {"geometry": {"type": "Point", "coordinates": [10.5878, 51.4936]}, "type": "Feature", "properties": {"id": 1317, "name": "Friedrichsthal"}}, {"geometry": {"type": "Point", "coordinates": [11.175, 51.2617]}, "type": "Feature", "properties": {"id": 1320, "name": "Etzleben"}}, {"geometry": {"type": "Point", "coordinates": [6.7908, 50.7117]}, "type": "Feature", "properties": {"id": 1327, "name": "Weilerswist-Lommersum"}}, {"geometry": {"type": "Point", "coordinates": [10.5878, 54.1356]}, "type": "Feature", "properties": {"id": 1329, "name": "Eutin"}}, {"geometry": {"type": "Point", "coordinates": [12.7239, 48.4831]}, "type": "Feature", "properties": {"id": 1332, "name": "Falkenberg,Kr.Rottal-Inn"}}, {"geometry": {"type": "Point", "coordinates": [12.3772, 50.4689]}, "type": "Feature", "properties": {"id": 1333, "name": "Falkenstein (Talsperre)"}}, {"geometry": {"type": "Point", "coordinates": [9.6753, 52.8564]}, "type": "Feature", "properties": {"id": 1336, "name": "Fallingbostel, Bad"}}, {"geometry": {"type": "Point", "coordinates": [10.1885, 52.9157]}, "type": "Feature", "properties": {"id": 1339, "name": "Fa\u00dfberg"}}, {"geometry": {"type": "Point", "coordinates": [11.15, 54.6]}, "type": "Feature", "properties": {"id": 1341, "name": "Fehmarnbelt"}}, {"geometry": {"type": "Point", "coordinates": [12.0183, 47.7686]}, "type": "Feature", "properties": {"id": 1343, "name": "Feilnbach, Bad"}}, {"geometry": {"type": "Point", "coordinates": [8.0036, 47.8747]}, "type": "Feature", "properties": {"id": 1346, "name": "Feldberg/Schwarzwald"}}, {"geometry": {"type": "Point", "coordinates": [13.0014, 52.0997]}, "type": "Feature", "properties": {"id": 1350, "name": "Felgentreu"}}, {"geometry": {"type": "Point", "coordinates": [9.2721, 48.8122]}, "type": "Feature", "properties": {"id": 1351, "name": "Fellbach"}}, {"geometry": {"type": "Point", "coordinates": [7.8333, 53.9167]}, "type": "Feature", "properties": {"id": 1355, "name": "FES Weser"}}, {"geometry": {"type": "Point", "coordinates": [11.8378, 49.9808]}, "type": "Feature", "properties": {"id": 1357, "name": "Fichtelberg/Oberfranken-H\u00fcttstadl"}}, {"geometry": {"type": "Point", "coordinates": [12.9533, 50.4283]}, "type": "Feature", "properties": {"id": 1358, "name": "Fichtelberg"}}, {"geometry": {"type": "Point", "coordinates": [11.2233, 50.0253]}, "type": "Feature", "properties": {"id": 1359, "name": "Fichtelberg/Ofr"}}, {"geometry": {"type": "Point", "coordinates": [11.7986, 48.2211]}, "type": "Feature", "properties": {"id": 1366, "name": "Finsing (Kraftwerk)"}}, {"geometry": {"type": "Point", "coordinates": [13.7164, 51.6317]}, "type": "Feature", "properties": {"id": 1369, "name": "Finsterwalde"}}, {"geometry": {"type": "Point", "coordinates": [9.4194, 54.8103]}, "type": "Feature", "properties": {"id": 1378, "name": "Flensburg"}}, {"geometry": {"type": "Point", "coordinates": [9.3753, 54.7736]}, "type": "Feature", "properties": {"id": 1379, "name": "Flensburg (Sch\u00e4ferhaus)"}}, {"geometry": {"type": "Point", "coordinates": [9.4083, 50.1344]}, "type": "Feature", "properties": {"id": 1384, "name": "Fl\u00f6rsbachtal-Fl\u00f6rsbach"}}, {"geometry": {"type": "Point", "coordinates": [12.3489, 49.7317]}, "type": "Feature", "properties": {"id": 1392, "name": "Flossenb\u00fcrg"}}, {"geometry": {"type": "Point", "coordinates": [13.2686, 50.7242]}, "type": "Feature", "properties": {"id": 1397, "name": "Pockau-Forchheim"}}, {"geometry": {"type": "Point", "coordinates": [11.9059, 48.1727]}, "type": "Feature", "properties": {"id": 1401, "name": "Forstinning"}}, {"geometry": {"type": "Point", "coordinates": [7.1667, 54.7]}, "type": "Feature", "properties": {"id": 1402, "name": "Forschungsplattform Nordsee"}}, {"geometry": {"type": "Point", "coordinates": [8.9336, 51.0881]}, "type": "Feature", "properties": {"id": 1404, "name": "Frankenau"}}, {"geometry": {"type": "Point", "coordinates": [12.1167, 50.1667]}, "type": "Feature", "properties": {"id": 1407, "name": "Selb/Oberfranken (Ernst Reuter Str.)"}}, {"geometry": {"type": "Point", "coordinates": [10.7656, 50.7369]}, "type": "Feature", "properties": {"id": 1408, "name": "Frankenhain (L\u00fctsche Talsperre)"}}, {"geometry": {"type": "Point", "coordinates": [10.0481, 50.5308]}, "type": "Feature", "properties": {"id": 1411, "name": "Birx/Rh\u00f6n"}}, {"geometry": {"type": "Point", "coordinates": [8.3669, 49.5544]}, "type": "Feature", "properties": {"id": 1413, "name": "Frankenthal-M\u00f6rsch"}}, {"geometry": {"type": "Point", "coordinates": [8.5333, 50.0333]}, "type": "Feature", "properties": {"id": 1415, "name": "Frankfurt (07W)"}}, {"geometry": {"type": "Point", "coordinates": [8.5333, 50.0167]}, "type": "Feature", "properties": {"id": 1416, "name": "Frankfurt (18W)"}}, {"geometry": {"type": "Point", "coordinates": [8.5978, 50.0447]}, "type": "Feature", "properties": {"id": 1420, "name": "Frankfurt/Main"}}, {"geometry": {"type": "Point", "coordinates": [8.6756, 50.1486]}, "type": "Feature", "properties": {"id": 1421, "name": "Frankfurt/Main (Stadt)"}}, {"geometry": {"type": "Point", "coordinates": [8.6936, 50.0972]}, "type": "Feature", "properties": {"id": 1422, "name": "Frankfurt (Henninger Turm)"}}, {"geometry": {"type": "Point", "coordinates": [8.5897, 50.0508]}, "type": "Feature", "properties": {"id": 1423, "name": "Frankfurt/Main (Terminal)"}}, {"geometry": {"type": "Point", "coordinates": [8.6692, 50.1267]}, "type": "Feature", "properties": {"id": 1424, "name": "Frankfurt/Main-Westend"}}, {"geometry": {"type": "Point", "coordinates": [8.6611, 50.1225]}, "type": "Feature", "properties": {"id": 1425, "name": "Frankfurt/Main (Feldbergstr.)"}}, {"geometry": {"type": "Point", "coordinates": [14.5079, 52.3397]}, "type": "Feature", "properties": {"id": 1426, "name": "Frankfurt/Oder"}}, {"geometry": {"type": "Point", "coordinates": [12.8817, 54.1875]}, "type": "Feature", "properties": {"id": 1429, "name": "Franzburg"}}, {"geometry": {"type": "Point", "coordinates": [12.0503, 48.0519]}, "type": "Feature", "properties": {"id": 1432, "name": "Frauenneuharting-Lohen"}}, {"geometry": {"type": "Point", "coordinates": [10.8581, 50.5922]}, "type": "Feature", "properties": {"id": 1435, "name": "Frauenwald"}}, {"geometry": {"type": "Point", "coordinates": [7.9331, 48.2017]}, "type": "Feature", "properties": {"id": 1440, "name": "Freiamt-Ottoschwanden"}}, {"geometry": {"type": "Point", "coordinates": [7.8342, 48.0231]}, "type": "Feature", "properties": {"id": 1443, "name": "Freiburg"}}, {"geometry": {"type": "Point", "coordinates": [9.2483, 53.8278]}, "type": "Feature", "properties": {"id": 1451, "name": "Freiburg/Elbe"}}, {"geometry": {"type": "Point", "coordinates": [9.137, 50.1412]}, "type": "Feature", "properties": {"id": 1457, "name": "Freigericht-Altenmittlau"}}, {"geometry": {"type": "Point", "coordinates": [11.886, 49.5747]}, "type": "Feature", "properties": {"id": 1458, "name": "Freihung-Gro\u00dfsch\u00f6nbrunn"}}, {"geometry": {"type": "Point", "coordinates": [8.4089, 48.4536]}, "type": "Feature", "properties": {"id": 1468, "name": "Freudenstadt"}}, {"geometry": {"type": "Point", "coordinates": [8.3028, 48.4647]}, "type": "Feature", "properties": {"id": 1470, "name": "Freudenstadt-Kniebis"}}, {"geometry": {"type": "Point", "coordinates": [11.3736, 49.1781]}, "type": "Feature", "properties": {"id": 1473, "name": "Freystadt-Oberndorf"}}, {"geometry": {"type": "Point", "coordinates": [11.0408, 51.6897]}, "type": "Feature", "properties": {"id": 1488, "name": "Friedrichsbrunn"}}, {"geometry": {"type": "Point", "coordinates": [9.4794, 47.645]}, "type": "Feature", "properties": {"id": 1490, "name": "Friedrichshafen"}}, {"geometry": {"type": "Point", "coordinates": [8.8803, 54.0075]}, "type": "Feature", "properties": {"id": 1494, "name": "Friedrichskoog"}}, {"geometry": {"type": "Point", "coordinates": [11.7606, 53.5386]}, "type": "Feature", "properties": {"id": 1495, "name": "Goldenbow"}}, {"geometry": {"type": "Point", "coordinates": [13.7086, 53.0236]}, "type": "Feature", "properties": {"id": 1497, "name": "Friedrichswalde"}}, {"geometry": {"type": "Point", "coordinates": [9.3325, 51.0003]}, "type": "Feature", "properties": {"id": 1498, "name": "Frielendorf-Verna"}}, {"geometry": {"type": "Point", "coordinates": [7.9022, 53.0642]}, "type": "Feature", "properties": {"id": 1503, "name": "Friesoythe-Altenoythe"}}, {"geometry": {"type": "Point", "coordinates": [9.2797, 51.1189]}, "type": "Feature", "properties": {"id": 1504, "name": "Fritzlar (Flugplatz)"}}, {"geometry": {"type": "Point", "coordinates": [9.2833, 51.1333]}, "type": "Feature", "properties": {"id": 1505, "name": "Fritzlar-Kasseler Warte"}}, {"geometry": {"type": "Point", "coordinates": [12.5717, 48.5586]}, "type": "Feature", "properties": {"id": 1511, "name": "Marklkofen (Betriebsstelle Vilstalsee)"}}, {"geometry": {"type": "Point", "coordinates": [8.1036, 50.66]}, "type": "Feature", "properties": {"id": 1513, "name": "Fuchskauten"}}, {"geometry": {"type": "Point", "coordinates": [13.1531, 53.1983]}, "type": "Feature", "properties": {"id": 1514, "name": "F\u00fcrstenberg/Havel"}}, {"geometry": {"type": "Point", "coordinates": [11.2667, 48.2]}, "type": "Feature", "properties": {"id": 1515, "name": "F\u00fcrstenfeldbruck"}}, {"geometry": {"type": "Point", "coordinates": [14.0639, 52.3547]}, "type": "Feature", "properties": {"id": 1517, "name": "F\u00fcrstenwalde/Spree"}}, {"geometry": {"type": "Point", "coordinates": [13.8058, 51.7564]}, "type": "Feature", "properties": {"id": 1519, "name": "F\u00fcrstlich Drehna"}}, {"geometry": {"type": "Point", "coordinates": [9.6761, 50.5347]}, "type": "Feature", "properties": {"id": 1526, "name": "Fulda"}}, {"geometry": {"type": "Point", "coordinates": [12.8339, 49.3022]}, "type": "Feature", "properties": {"id": 1528, "name": "Furth im Wald"}}, {"geometry": {"type": "Point", "coordinates": [12.7619, 50.6683]}, "type": "Feature", "properties": {"id": 1530, "name": "Stollberg-Gablenz"}}, {"geometry": {"type": "Point", "coordinates": [10.3856, 50.0367]}, "type": "Feature", "properties": {"id": 1534, "name": "G\u00e4dheim-Gre\u00dfhausen"}}, {"geometry": {"type": "Point", "coordinates": [8.2915, 48.8247]}, "type": "Feature", "properties": {"id": 1537, "name": "Gaggenau-Rotenfels,Bad"}}, {"geometry": {"type": "Point", "coordinates": [9.7411, 49.0181]}, "type": "Feature", "properties": {"id": 1538, "name": "Gaildorf-H\u00e4genau"}}, {"geometry": {"type": "Point", "coordinates": [8.5506, 52.9872]}, "type": "Feature", "properties": {"id": 1540, "name": "Ganderkesee-Sethe"}}, {"geometry": {"type": "Point", "coordinates": [12.5714, 48.4322]}, "type": "Feature", "properties": {"id": 1542, "name": "Gangkofen (Kl\u00e4ranlage)"}}, {"geometry": {"type": "Point", "coordinates": [11.3942, 52.5128]}, "type": "Feature", "properties": {"id": 1544, "name": "Gardelegen"}}, {"geometry": {"type": "Point", "coordinates": [8.7897, 54.3281]}, "type": "Feature", "properties": {"id": 1546, "name": "Garding"}}, {"geometry": {"type": "Point", "coordinates": [11.0622, 47.4828]}, "type": "Feature", "properties": {"id": 1550, "name": "Garmisch-Partenkirchen"}}, {"geometry": {"type": "Point", "coordinates": [8.0858, 52.98]}, "type": "Feature", "properties": {"id": 1551, "name": "Garrel-Nikolausdorf"}}, {"geometry": {"type": "Point", "coordinates": [14.3836, 53.2081]}, "type": "Feature", "properties": {"id": 1552, "name": "Gartz/Oder"}}, {"geometry": {"type": "Point", "coordinates": [7.8172, 50.7433]}, "type": "Feature", "properties": {"id": 1559, "name": "Gebhardshain"}}, {"geometry": {"type": "Point", "coordinates": [9.2064, 50.4033]}, "type": "Feature", "properties": {"id": 1561, "name": "Gedern-Sch\u00f6nhausen"}}, {"geometry": {"type": "Point", "coordinates": [10.7825, 50.6833]}, "type": "Feature", "properties": {"id": 1566, "name": "Gehlberg"}}, {"geometry": {"type": "Point", "coordinates": [9.9539, 50.7136]}, "type": "Feature", "properties": {"id": 1573, "name": "Geisa"}}, {"geometry": {"type": "Point", "coordinates": [12.4028, 48.8236]}, "type": "Feature", "properties": {"id": 1575, "name": "Geiselh\u00f6ring"}}, {"geometry": {"type": "Point", "coordinates": [10.4681, 49.7739]}, "type": "Feature", "properties": {"id": 1577, "name": "Geiselwind"}}, {"geometry": {"type": "Point", "coordinates": [11.5842, 48.6514]}, "type": "Feature", "properties": {"id": 1578, "name": "Geisenfeld-Eichelberg"}}, {"geometry": {"type": "Point", "coordinates": [7.9547, 49.9858]}, "type": "Feature", "properties": {"id": 1580, "name": "Geisenheim"}}, {"geometry": {"type": "Point", "coordinates": [8.6469, 47.9239]}, "type": "Feature", "properties": {"id": 1584, "name": "Geisingen"}}, {"geometry": {"type": "Point", "coordinates": [11.4289, 48.9481]}, "type": "Feature", "properties": {"id": 1587, "name": "Gelbelsee"}}, {"geometry": {"type": "Point", "coordinates": [10.0208, 49.5733]}, "type": "Feature", "properties": {"id": 1588, "name": "Gelchsheim"}}, {"geometry": {"type": "Point", "coordinates": [6.2461, 51.4942]}, "type": "Feature", "properties": {"id": 1590, "name": "Geldern-Walbeck"}}, {"geometry": {"type": "Point", "coordinates": [7.0944, 51.5067]}, "type": "Feature", "properties": {"id": 1594, "name": "Gelsenkirchen"}}, {"geometry": {"type": "Point", "coordinates": [7.0647, 51.5767]}, "type": "Feature", "properties": {"id": 1595, "name": "Gelsenkirchen-Buer"}}, {"geometry": {"type": "Point", "coordinates": [7.7428, 50.2489]}, "type": "Feature", "properties": {"id": 1598, "name": "Oberbachheim"}}, {"geometry": {"type": "Point", "coordinates": [9.7358, 50.0331]}, "type": "Feature", "properties": {"id": 1601, "name": "Gem\u00fcnden/Main-Adelsberg"}}, {"geometry": {"type": "Point", "coordinates": [7.9925, 48.4328]}, "type": "Feature", "properties": {"id": 1602, "name": "Ohlsbach"}}, {"geometry": {"type": "Point", "coordinates": [12.16, 52.3875]}, "type": "Feature", "properties": {"id": 1605, "name": "Genthin"}}, {"geometry": {"type": "Point", "coordinates": [11.0264, 49.1939]}, "type": "Feature", "properties": {"id": 1607, "name": "Georgensgm\u00fcnd"}}, {"geometry": {"type": "Point", "coordinates": [8.06, 52.1947]}, "type": "Feature", "properties": {"id": 1609, "name": "Georgsmarienh\u00fctte"}}, {"geometry": {"type": "Point", "coordinates": [12.1286, 50.8811]}, "type": "Feature", "properties": {"id": 1612, "name": "Gera-Leumnitz"}}, {"geometry": {"type": "Point", "coordinates": [9.9339, 49.2514]}, "type": "Feature", "properties": {"id": 1614, "name": "Gerabronn"}}, {"geometry": {"type": "Point", "coordinates": [8.4875, 49.7611]}, "type": "Feature", "properties": {"id": 1619, "name": "Gernsheim"}}, {"geometry": {"type": "Point", "coordinates": [10.1313, 48.5995]}, "type": "Feature", "properties": {"id": 1627, "name": "Gerstetten-Dettingen"}}, {"geometry": {"type": "Point", "coordinates": [8.6439, 50.6014]}, "type": "Feature", "properties": {"id": 1639, "name": "Gie\u00dfen/Wettenberg"}}, {"geometry": {"type": "Point", "coordinates": [10.5172, 52.5322]}, "type": "Feature", "properties": {"id": 1641, "name": "Gifhorn-K\u00e4storf"}}, {"geometry": {"type": "Point", "coordinates": [11.2778, 48.1083]}, "type": "Feature", "properties": {"id": 1642, "name": "Gilching"}}, {"geometry": {"type": "Point", "coordinates": [9.0492, 50.965]}, "type": "Feature", "properties": {"id": 1645, "name": "Gilserberg-Moischeid"}}, {"geometry": {"type": "Point", "coordinates": [8.5833, 50.7667]}, "type": "Feature", "properties": {"id": 1648, "name": "Gladenbach"}}, {"geometry": {"type": "Point", "coordinates": [7.4111, 49.4648]}, "type": "Feature", "properties": {"id": 1650, "name": "Henschtal"}}, {"geometry": {"type": "Point", "coordinates": [11.4311, 49.9017]}, "type": "Feature", "properties": {"id": 1652, "name": "Mistelgau-Hardt"}}, {"geometry": {"type": "Point", "coordinates": [12.7003, 51.1603]}, "type": "Feature", "properties": {"id": 1654, "name": "Lausick, Bad-Glasten"}}, {"geometry": {"type": "Point", "coordinates": [9.5056, 54.8272]}, "type": "Feature", "properties": {"id": 1666, "name": "Gl\u00fccksburg-Meierwik"}}, {"geometry": {"type": "Point", "coordinates": [9.4294, 53.7969]}, "type": "Feature", "properties": {"id": 1667, "name": "Gl\u00fcckstadt"}}, {"geometry": {"type": "Point", "coordinates": [12.9683, 53.8083]}, "type": "Feature", "properties": {"id": 1669, "name": "Borrentin-Wolkwitz"}}, {"geometry": {"type": "Point", "coordinates": [9.8869, 48.8622]}, "type": "Feature", "properties": {"id": 1674, "name": "G\u00f6ggingen"}}, {"geometry": {"type": "Point", "coordinates": [8.0461, 49.5908]}, "type": "Feature", "properties": {"id": 1679, "name": "G\u00f6llheim"}}, {"geometry": {"type": "Point", "coordinates": [9.6347, 48.6889]}, "type": "Feature", "properties": {"id": 1680, "name": "G\u00f6ppingen-Jebenhausen"}}, {"geometry": {"type": "Point", "coordinates": [10.5133, 47.7033]}, "type": "Feature", "properties": {"id": 1682, "name": "G\u00f6risried"}}, {"geometry": {"type": "Point", "coordinates": [14.9506, 51.1622]}, "type": "Feature", "properties": {"id": 1684, "name": "G\u00f6rlitz"}}, {"geometry": {"type": "Point", "coordinates": [11.8682, 50.6276]}, "type": "Feature", "properties": {"id": 1687, "name": "G\u00f6schitz"}}, {"geometry": {"type": "Point", "coordinates": [11.3061, 49.7656]}, "type": "Feature", "properties": {"id": 1689, "name": "G\u00f6\u00dfweinstein"}}, {"geometry": {"type": "Point", "coordinates": [9.9506, 51.5003]}, "type": "Feature", "properties": {"id": 1691, "name": "G\u00f6ttingen"}}, {"geometry": {"type": "Point", "coordinates": [12.1031, 53.6058]}, "type": "Feature", "properties": {"id": 1694, "name": "Goldberg"}}, {"geometry": {"type": "Point", "coordinates": [11.3608, 53.0461]}, "type": "Feature", "properties": {"id": 1701, "name": "Gorleben"}}, {"geometry": {"type": "Point", "coordinates": [8.7931, 47.7342]}, "type": "Feature", "properties": {"id": 1711, "name": "Gottmadingen"}}, {"geometry": {"type": "Point", "coordinates": [12.2369, 54.2481]}, "type": "Feature", "properties": {"id": 1714, "name": "Graal-M\u00fcritz, Seeheilbad"}}, {"geometry": {"type": "Point", "coordinates": [11.5967, 53.3056]}, "type": "Feature", "properties": {"id": 1717, "name": "Grabow (Hechtsforthschleuse)"}}, {"geometry": {"type": "Point", "coordinates": [11.2239, 49.6639]}, "type": "Feature", "properties": {"id": 1721, "name": "Gr\u00e4fenberg-Kasberg"}}, {"geometry": {"type": "Point", "coordinates": [11.2019, 49.6686]}, "type": "Feature", "properties": {"id": 1722, "name": "Gr\u00e4fenberg-Rangen"}}, {"geometry": {"type": "Point", "coordinates": [10.7378, 51.0869]}, "type": "Feature", "properties": {"id": 1724, "name": "Tonna-Gr\u00e4fentonna"}}, {"geometry": {"type": "Point", "coordinates": [8.2477, 47.7758]}, "type": "Feature", "properties": {"id": 1727, "name": "Grafenhausen/Hochschwarzwald"}}, {"geometry": {"type": "Point", "coordinates": [11.9842, 49.6772]}, "type": "Feature", "properties": {"id": 1729, "name": "Grafenw\u00f6hr-Grub"}}, {"geometry": {"type": "Point", "coordinates": [12.9758, 48.8958]}, "type": "Feature", "properties": {"id": 1730, "name": "Grafling"}}, {"geometry": {"type": "Point", "coordinates": [10.9939, 47.4561]}, "type": "Feature", "properties": {"id": 1734, "name": "Grainau-Eibsee"}}, {"geometry": {"type": "Point", "coordinates": [13.6289, 48.7892]}, "type": "Feature", "properties": {"id": 1735, "name": "Grainet-Rehberg"}}, {"geometry": {"type": "Point", "coordinates": [10.6796, 53.5731]}, "type": "Feature", "properties": {"id": 1736, "name": "Grambek"}}, {"geometry": {"type": "Point", "coordinates": [14.4767, 51.5717]}, "type": "Feature", "properties": {"id": 1744, "name": "Graustein"}}, {"geometry": {"type": "Point", "coordinates": [9.4232, 50.7431]}, "type": "Feature", "properties": {"id": 1746, "name": "Grebenau-Reimenrod"}}, {"geometry": {"type": "Point", "coordinates": [9.4131, 51.4497]}, "type": "Feature", "properties": {"id": 1750, "name": "Grebenstein"}}, {"geometry": {"type": "Point", "coordinates": [11.3633, 49.0367]}, "type": "Feature", "properties": {"id": 1751, "name": "Greding"}}, {"geometry": {"type": "Point", "coordinates": [11.3733, 49.0744]}, "type": "Feature", "properties": {"id": 1752, "name": "Greding-Herrnsberg"}}, {"geometry": {"type": "Point", "coordinates": [13.4056, 54.0967]}, "type": "Feature", "properties": {"id": 1757, "name": "Greifswald"}}, {"geometry": {"type": "Point", "coordinates": [13.9102, 54.2437]}, "type": "Feature", "properties": {"id": 1759, "name": "Greifswalder Oie"}}, {"geometry": {"type": "Point", "coordinates": [10.8344, 49.6956]}, "type": "Feature", "properties": {"id": 1764, "name": "Gremsdorf"}}, {"geometry": {"type": "Point", "coordinates": [7.6964, 52.1344]}, "type": "Feature", "properties": {"id": 1766, "name": "M\u00fcnster/Osnabr\u00fcck"}}, {"geometry": {"type": "Point", "coordinates": [11.1706, 53.8314]}, "type": "Feature", "properties": {"id": 1769, "name": "Grevesm\u00fchlen"}}, {"geometry": {"type": "Point", "coordinates": [11.9656, 52.4228]}, "type": "Feature", "properties": {"id": 1770, "name": "Grieben"}}, {"geometry": {"type": "Point", "coordinates": [13.0061, 54.1414]}, "type": "Feature", "properties": {"id": 1779, "name": "Papenhagen-Hoikenhagen"}}, {"geometry": {"type": "Point", "coordinates": [7.0258, 52.2042]}, "type": "Feature", "properties": {"id": 1791, "name": "Gronau"}}, {"geometry": {"type": "Point", "coordinates": [7.4975, 52.7381]}, "type": "Feature", "properties": {"id": 1792, "name": "Gro\u00df Ber\u00dfen"}}, {"geometry": {"type": "Point", "coordinates": [11.4647, 51.8803]}, "type": "Feature", "properties": {"id": 1793, "name": "Hecklingen-Gro\u00df B\u00f6rnecke"}}, {"geometry": {"type": "Point", "coordinates": [12.7922, 52.4042]}, "type": "Feature", "properties": {"id": 1801, "name": "Gro\u00df Kreutz"}}, {"geometry": {"type": "Point", "coordinates": [14.0433, 52.0217]}, "type": "Feature", "properties": {"id": 1802, "name": "M\u00e4rkische Heide-Dollgen"}}, {"geometry": {"type": "Point", "coordinates": [12.3239, 54.0714]}, "type": "Feature", "properties": {"id": 1803, "name": "Gro\u00df L\u00fcsewitz"}}, {"geometry": {"type": "Point", "coordinates": [11.7644, 51.9411]}, "type": "Feature", "properties": {"id": 1804, "name": "B\u00f6rdeland-Kleinm\u00fchlingen (Steinbruch)"}}, {"geometry": {"type": "Point", "coordinates": [13.5371, 52.9093]}, "type": "Feature", "properties": {"id": 1810, "name": "Schorfheide-Gro\u00df Sch\u00f6nebeck"}}, {"geometry": {"type": "Point", "coordinates": [9.7647, 54.4028]}, "type": "Feature", "properties": {"id": 1813, "name": "Gro\u00df Wittensee"}}, {"geometry": {"type": "Point", "coordinates": [8.4458, 49.9053]}, "type": "Feature", "properties": {"id": 1814, "name": "Gro\u00df-Gerau-Wallerst\u00e4dten"}}, {"geometry": {"type": "Point", "coordinates": [11.0833, 54.3722]}, "type": "Feature", "properties": {"id": 1827, "name": "Gro\u00dfenbrode"}}, {"geometry": {"type": "Point", "coordinates": [8.2106, 52.9433]}, "type": "Feature", "properties": {"id": 1829, "name": "Gro\u00dfenkneten-Sage"}}, {"geometry": {"type": "Point", "coordinates": [9.5186, 50.5467]}, "type": "Feature", "properties": {"id": 1830, "name": "Gro\u00dfenl\u00fcder-Kleinl\u00fcder"}}, {"geometry": {"type": "Point", "coordinates": [13.1369, 49.1136]}, "type": "Feature", "properties": {"id": 1831, "name": "Gro\u00dfer Arber (Ost)"}}, {"geometry": {"type": "Point", "coordinates": [13.1342, 49.1128]}, "type": "Feature", "properties": {"id": 1832, "name": "Gro\u00dfer Arber"}}, {"geometry": {"type": "Point", "coordinates": [13.2817, 49.0861]}, "type": "Feature", "properties": {"id": 1833, "name": "Grosser Falkenstein"}}, {"geometry": {"type": "Point", "coordinates": [11.8997, 47.9408]}, "type": "Feature", "properties": {"id": 1844, "name": "Feldkirchen-Westerham-Lenzm\u00fchle"}}, {"geometry": {"type": "Point", "coordinates": [12.6203, 48.6772]}, "type": "Feature", "properties": {"id": 1846, "name": "Pilsting-B\u00e4ckerm\u00fchle"}}, {"geometry": {"type": "Point", "coordinates": [12.0508, 51.2742]}, "type": "Feature", "properties": {"id": 1847, "name": "Wei\u00dfenfels-Wengelsdorf"}}, {"geometry": {"type": "Point", "coordinates": [12.1717, 51.3089]}, "type": "Feature", "properties": {"id": 1848, "name": "Markranst\u00e4dt-Gro\u00dflehna"}}, {"geometry": {"type": "Point", "coordinates": [11.5742, 48.8136]}, "type": "Feature", "properties": {"id": 1849, "name": "Gro\u00dfmehring-Thei\u00dfing"}}, {"geometry": {"type": "Point", "coordinates": [9.0904, 49.9229]}, "type": "Feature", "properties": {"id": 1851, "name": "Gro\u00dfostheim"}}, {"geometry": {"type": "Point", "coordinates": [9.1878, 50.2661]}, "type": "Feature", "properties": {"id": 1863, "name": "Gr\u00fcndau-Breitenborn"}}, {"geometry": {"type": "Point", "coordinates": [13.9336, 53.3153]}, "type": "Feature", "properties": {"id": 1869, "name": "Gr\u00fcnow"}}, {"geometry": {"type": "Point", "coordinates": [8.1822, 49.5639]}, "type": "Feature", "properties": {"id": 1870, "name": "Gr\u00fcnstadt"}}, {"geometry": {"type": "Point", "coordinates": [14.692, 51.9472]}, "type": "Feature", "properties": {"id": 1876, "name": "Guben"}}, {"geometry": {"type": "Point", "coordinates": [11.0492, 51.3072]}, "type": "Feature", "properties": {"id": 1880, "name": "G\u00fcnserode"}}, {"geometry": {"type": "Point", "coordinates": [10.9811, 51.6464]}, "type": "Feature", "properties": {"id": 1885, "name": "Harzgerode-G\u00fcntersberge"}}, {"geometry": {"type": "Point", "coordinates": [10.2606, 48.4878]}, "type": "Feature", "properties": {"id": 1886, "name": "G\u00fcnzburg"}}, {"geometry": {"type": "Point", "coordinates": [12.1139, 53.8119]}, "type": "Feature", "properties": {"id": 1888, "name": "Parum"}}, {"geometry": {"type": "Point", "coordinates": [7.6164, 51.045]}, "type": "Feature", "properties": {"id": 1896, "name": "Gummersbach-Erlenhagen"}}, {"geometry": {"type": "Point", "coordinates": [9.1667, 49.2878]}, "type": "Feature", "properties": {"id": 1899, "name": "Gundelsheim"}}, {"geometry": {"type": "Point", "coordinates": [12.1536, 48.4522]}, "type": "Feature", "properties": {"id": 1900, "name": "Vilsheim-M\u00fcnchsdorf"}}, {"geometry": {"type": "Point", "coordinates": [9.5131, 51.2044]}, "type": "Feature", "properties": {"id": 1907, "name": "Guxhagen-Albshausen"}}, {"geometry": {"type": "Point", "coordinates": [12.17, 48.1531]}, "type": "Feature", "properties": {"id": 1909, "name": "Haag, Kreis M\u00fchldorf"}}, {"geometry": {"type": "Point", "coordinates": [11.707, 48.0916]}, "type": "Feature", "properties": {"id": 1910, "name": "Putzbrunn-Solalinden"}}, {"geometry": {"type": "Point", "coordinates": [7.4903, 51.4142]}, "type": "Feature", "properties": {"id": 1920, "name": "Hagen-Fley"}}, {"geometry": {"type": "Point", "coordinates": [10.2142, 51.9494]}, "type": "Feature", "properties": {"id": 1927, "name": "Hahausen"}}, {"geometry": {"type": "Point", "coordinates": [13.0167, 48.5833]}, "type": "Feature", "properties": {"id": 1932, "name": "Haidenburg"}}, {"geometry": {"type": "Point", "coordinates": [8.7667, 48.3703]}, "type": "Feature", "properties": {"id": 1937, "name": "Haigerloch-Weildorf"}}, {"geometry": {"type": "Point", "coordinates": [11.5317, 48.3025]}, "type": "Feature", "properties": {"id": 1938, "name": "Haimhausen-Ottershausen"}}, {"geometry": {"type": "Point", "coordinates": [11.3619, 51.9153]}, "type": "Feature", "properties": {"id": 1945, "name": "B\u00f6rde-Hakel-Hakeborn"}}, {"geometry": {"type": "Point", "coordinates": [11.0625, 51.9044]}, "type": "Feature", "properties": {"id": 1949, "name": "Halberstadt"}}, {"geometry": {"type": "Point", "coordinates": [10.8072, 47.6458]}, "type": "Feature", "properties": {"id": 1950, "name": "Halblech-Trauchgau"}}, {"geometry": {"type": "Point", "coordinates": [11.9647, 51.4303]}, "type": "Feature", "properties": {"id": 1954, "name": "Halle-D\u00f6llnitz"}}, {"geometry": {"type": "Point", "coordinates": [11.9497, 51.5136]}, "type": "Feature", "properties": {"id": 1957, "name": "Halle-Kr\u00f6llwitz"}}, {"geometry": {"type": "Point", "coordinates": [8.5133, 54.5742]}, "type": "Feature", "properties": {"id": 1963, "name": "Hallig Hooge"}}, {"geometry": {"type": "Point", "coordinates": [6.3817, 49.9444]}, "type": "Feature", "properties": {"id": 1964, "name": "Olsdorf"}}, {"geometry": {"type": "Point", "coordinates": [10.2417, 53.4792]}, "type": "Feature", "properties": {"id": 1972, "name": "Hamburg-Bergedorf"}}, {"geometry": {"type": "Point", "coordinates": [9.9881, 53.6332]}, "type": "Feature", "properties": {"id": 1975, "name": "Hamburg-Fuhlsb\u00fcttel"}}, {"geometry": {"type": "Point", "coordinates": [9.8956, 53.4775]}, "type": "Feature", "properties": {"id": 1981, "name": "Hamburg-Neuwiedenthal"}}, {"geometry": {"type": "Point", "coordinates": [9.9664, 53.5467]}, "type": "Feature", "properties": {"id": 1987, "name": "Hamburg-Sankt Pauli"}}, {"geometry": {"type": "Point", "coordinates": [10.1306, 53.5869]}, "type": "Feature", "properties": {"id": 1990, "name": "Hamburg-Wandsbek"}}, {"geometry": {"type": "Point", "coordinates": [9.3892, 52.085]}, "type": "Feature", "properties": {"id": 1993, "name": "Hameln"}}, {"geometry": {"type": "Point", "coordinates": [9.9069, 50.1208]}, "type": "Feature", "properties": {"id": 1997, "name": "Hammelburg"}}, {"geometry": {"type": "Point", "coordinates": [6.5844, 51.7214]}, "type": "Feature", "properties": {"id": 1999, "name": "Hamminkeln-M\u00fchlenrott"}}, {"geometry": {"type": "Point", "coordinates": [10.5986, 52.72]}, "type": "Feature", "properties": {"id": 2005, "name": "Hankensb\u00fcttel"}}, {"geometry": {"type": "Point", "coordinates": [9.6628, 52.3964]}, "type": "Feature", "properties": {"id": 2011, "name": "Hannover-Herrenhausen"}}, {"geometry": {"type": "Point", "coordinates": [9.8186, 52.3669]}, "type": "Feature", "properties": {"id": 2012, "name": "Hannover-Kirchrode"}}, {"geometry": {"type": "Point", "coordinates": [9.6778, 52.4644]}, "type": "Feature", "properties": {"id": 2014, "name": "Hannover"}}, {"geometry": {"type": "Point", "coordinates": [10.7061, 48.7917]}, "type": "Feature", "properties": {"id": 2023, "name": "Harburg"}}, {"geometry": {"type": "Point", "coordinates": [8.2092, 51.9753]}, "type": "Feature", "properties": {"id": 2027, "name": "Harsewinkel"}}, {"geometry": {"type": "Point", "coordinates": [10.57, 51.9]}, "type": "Feature", "properties": {"id": 2039, "name": "Harzburg, Bad"}}, {"geometry": {"type": "Point", "coordinates": [11.1367, 51.6519]}, "type": "Feature", "properties": {"id": 2044, "name": "Harzgerode"}}, {"geometry": {"type": "Point", "coordinates": [7.5081, 52.6883]}, "type": "Feature", "properties": {"id": 2049, "name": "Hasel\u00fcnne"}}, {"geometry": {"type": "Point", "coordinates": [8.0839, 48.2764]}, "type": "Feature", "properties": {"id": 2050, "name": "Haslach im Kinzigtal"}}, {"geometry": {"type": "Point", "coordinates": [9.4719, 49.7844]}, "type": "Feature", "properties": {"id": 2051, "name": "Hasloch/Main (Schirrhof)"}}, {"geometry": {"type": "Point", "coordinates": [10.4947, 50.0493]}, "type": "Feature", "properties": {"id": 2055, "name": "Ha\u00dffurt"}}, {"geometry": {"type": "Point", "coordinates": [10.8242, 49.1839]}, "type": "Feature", "properties": {"id": 2064, "name": "Haundorf-Obererlbach"}}, {"geometry": {"type": "Point", "coordinates": [9.6608, 50.7375]}, "type": "Feature", "properties": {"id": 2066, "name": "Haunetal-Wehrda"}}, {"geometry": {"type": "Point", "coordinates": [13.0669, 48.8628]}, "type": "Feature", "properties": {"id": 2069, "name": "Hausstein"}}, {"geometry": {"type": "Point", "coordinates": [9.4744, 48.2736]}, "type": "Feature", "properties": {"id": 2072, "name": "Hayingen"}}, {"geometry": {"type": "Point", "coordinates": [11.0819, 51.5686]}, "type": "Feature", "properties": {"id": 2073, "name": "S\u00fcdharz-Hayn/Harz"}}, {"geometry": {"type": "Point", "coordinates": [8.98, 48.375]}, "type": "Feature", "properties": {"id": 2074, "name": "Hechingen"}}, {"geometry": {"type": "Point", "coordinates": [11.1608, 49.1436]}, "type": "Feature", "properties": {"id": 2079, "name": "Heideck"}}, {"geometry": {"type": "Point", "coordinates": [8.6675, 49.4206]}, "type": "Feature", "properties": {"id": 2080, "name": "Heidelberg"}}, {"geometry": {"type": "Point", "coordinates": [8.725, 49.3981]}, "type": "Feature", "properties": {"id": 2081, "name": "K\u00f6nigstuhl"}}, {"geometry": {"type": "Point", "coordinates": [10.1308, 48.6764]}, "type": "Feature", "properties": {"id": 2088, "name": "Heidenheim/Brenz"}}, {"geometry": {"type": "Point", "coordinates": [7.9958, 50.1703]}, "type": "Feature", "properties": {"id": 2092, "name": "Heidenrod-Mappershain"}}, {"geometry": {"type": "Point", "coordinates": [9.8239, 53.8578]}, "type": "Feature", "properties": {"id": 2093, "name": "Heidmoor"}}, {"geometry": {"type": "Point", "coordinates": [9.2344, 49.1458]}, "type": "Feature", "properties": {"id": 2095, "name": "Heilbronn"}}, {"geometry": {"type": "Point", "coordinates": [9.1542, 49.1181]}, "type": "Feature", "properties": {"id": 2096, "name": "Heilbronn-Klingenberg"}}, {"geometry": {"type": "Point", "coordinates": [6.9939, 51.3392]}, "type": "Feature", "properties": {"id": 2099, "name": "Heiligenhaus-Abtsk\u00fcche"}}, {"geometry": {"type": "Point", "coordinates": [10.7845, 49.3343]}, "type": "Feature", "properties": {"id": 2103, "name": "Heilsbronn"}}, {"geometry": {"type": "Point", "coordinates": [9.3456, 50.0661]}, "type": "Feature", "properties": {"id": 2109, "name": "Heinrichsthal"}}, {"geometry": {"type": "Point", "coordinates": [6.1039, 51.0411]}, "type": "Feature", "properties": {"id": 2110, "name": "Heinsberg-Schleiden"}}, {"geometry": {"type": "Point", "coordinates": [7.892, 54.175]}, "type": "Feature", "properties": {"id": 2115, "name": "Helgoland"}}, {"geometry": {"type": "Point", "coordinates": [6.3911, 50.41]}, "type": "Feature", "properties": {"id": 2117, "name": "Hellenthal-Udenbreth"}}, {"geometry": {"type": "Point", "coordinates": [10.6832, 50.2553]}, "type": "Feature", "properties": {"id": 2118, "name": "Hellingen"}}, {"geometry": {"type": "Point", "coordinates": [11.7031, 50.2378]}, "type": "Feature", "properties": {"id": 2119, "name": "Helmbrechts"}}, {"geometry": {"type": "Point", "coordinates": [9.0106, 53.9717]}, "type": "Feature", "properties": {"id": 2122, "name": "Helse, Kr. Dithmarschen"}}, {"geometry": {"type": "Point", "coordinates": [8.7144, 49.6567]}, "type": "Feature", "properties": {"id": 2139, "name": "Heppenheim-Mittershausen"}}, {"geometry": {"type": "Point", "coordinates": [9.0925, 53.2569]}, "type": "Feature", "properties": {"id": 2140, "name": "Hepstedt"}}, {"geometry": {"type": "Point", "coordinates": [9.2239, 47.8836]}, "type": "Feature", "properties": {"id": 2146, "name": "Herdwangen-Sch\u00f6nach"}}, {"geometry": {"type": "Point", "coordinates": [8.6875, 52.1278]}, "type": "Feature", "properties": {"id": 2147, "name": "Herford"}}, {"geometry": {"type": "Point", "coordinates": [10.1469, 51.0422]}, "type": "Feature", "properties": {"id": 2152, "name": "Herleshausen-Archfeld"}}, {"geometry": {"type": "Point", "coordinates": [8.8542, 48.5917]}, "type": "Feature", "properties": {"id": 2159, "name": "Herrenberg"}}, {"geometry": {"type": "Point", "coordinates": [14.75, 51.0167]}, "type": "Feature", "properties": {"id": 2166, "name": "Herrnhut"}}, {"geometry": {"type": "Point", "coordinates": [7.3364, 49.7683]}, "type": "Feature", "properties": {"id": 2167, "name": "Niederw\u00f6rresbach"}}, {"geometry": {"type": "Point", "coordinates": [11.4025, 49.5053]}, "type": "Feature", "properties": {"id": 2168, "name": "Hersbruck"}}, {"geometry": {"type": "Point", "coordinates": [6.5525, 50.1503]}, "type": "Feature", "properties": {"id": 2170, "name": "Hersdorf-Wei\u00dfenseifen (WWV RLP)"}}, {"geometry": {"type": "Point", "coordinates": [9.7378, 50.8517]}, "type": "Feature", "properties": {"id": 2171, "name": "Hersfeld, Bad"}}, {"geometry": {"type": "Point", "coordinates": [7.1556, 51.5903]}, "type": "Feature", "properties": {"id": 2173, "name": "Herten"}}, {"geometry": {"type": "Point", "coordinates": [10.3703, 51.6253]}, "type": "Feature", "properties": {"id": 2174, "name": "Herzberg"}}, {"geometry": {"type": "Point", "coordinates": [10.3569, 51.6889]}, "type": "Feature", "properties": {"id": 2175, "name": "Herzberg-Lonau"}}, {"geometry": {"type": "Point", "coordinates": [13.2292, 51.6997]}, "type": "Feature", "properties": {"id": 2177, "name": "Herzberg/Elster"}}, {"geometry": {"type": "Point", "coordinates": [10.8714, 49.558]}, "type": "Feature", "properties": {"id": 2178, "name": "Herzogenaurach"}}, {"geometry": {"type": "Point", "coordinates": [7.6639, 53.2997]}, "type": "Feature", "properties": {"id": 2181, "name": "Hesel-Schwerinsdorf"}}, {"geometry": {"type": "Point", "coordinates": [9.6922, 51.2142]}, "type": "Feature", "properties": {"id": 2184, "name": "Hessisch Lichtenau-F\u00fcrstenhagen"}}, {"geometry": {"type": "Point", "coordinates": [11.5047, 51.6382]}, "type": "Feature", "properties": {"id": 2192, "name": "Hettstedt"}}, {"geometry": {"type": "Point", "coordinates": [13.1044, 54.575]}, "type": "Feature", "properties": {"id": 2201, "name": "Hiddensee-Vitte"}}, {"geometry": {"type": "Point", "coordinates": [9.95, 52.1833]}, "type": "Feature", "properties": {"id": 2207, "name": "Hildesheim (Flugplatz)"}}, {"geometry": {"type": "Point", "coordinates": [7.6525, 50.7369]}, "type": "Feature", "properties": {"id": 2211, "name": "Hilgenroth"}}, {"geometry": {"type": "Point", "coordinates": [6.6236, 50.3106]}, "type": "Feature", "properties": {"id": 2213, "name": "Lissendorf"}}, {"geometry": {"type": "Point", "coordinates": [10.4269, 47.5558]}, "type": "Feature", "properties": {"id": 2222, "name": "Hindelang-Unterjoch (LfW)"}}, {"geometry": {"type": "Point", "coordinates": [8.1056, 47.8983]}, "type": "Feature", "properties": {"id": 2228, "name": "Hinterzarten"}}, {"geometry": {"type": "Point", "coordinates": [10.9997, 49.8547]}, "type": "Feature", "properties": {"id": 2230, "name": "Strullendorf-Amlingstadt"}}, {"geometry": {"type": "Point", "coordinates": [11.8194, 50.4036]}, "type": "Feature", "properties": {"id": 2233, "name": "Hirschberg"}}, {"geometry": {"type": "Point", "coordinates": [8.9058, 49.4522]}, "type": "Feature", "properties": {"id": 2235, "name": "Hirschhorn (Neckar)"}}, {"geometry": {"type": "Point", "coordinates": [7.7558, 49.0489]}, "type": "Feature", "properties": {"id": 2236, "name": "Hirschthal"}}, {"geometry": {"type": "Point", "coordinates": [11.0411, 53.1506]}, "type": "Feature", "properties": {"id": 2237, "name": "Hitzacker"}}, {"geometry": {"type": "Point", "coordinates": [7.5481, 49.2286]}, "type": "Feature", "properties": {"id": 2249, "name": "H\u00f6heischweiler"}}, {"geometry": {"type": "Point", "coordinates": [14.7456, 50.8992]}, "type": "Feature", "properties": {"id": 2252, "name": "Bertsdorf-H\u00f6rnitz"}}, {"geometry": {"type": "Point", "coordinates": [8.2833, 54.7667]}, "type": "Feature", "properties": {"id": 2253, "name": "H\u00f6rnum/Sylt"}}, {"geometry": {"type": "Point", "coordinates": [7.6444, 52.2453]}, "type": "Feature", "properties": {"id": 2254, "name": "H\u00f6rstel"}}, {"geometry": {"type": "Point", "coordinates": [9.26, 50.0231]}, "type": "Feature", "properties": {"id": 2255, "name": "Sailauf"}}, {"geometry": {"type": "Point", "coordinates": [9.4264, 51.7881]},