{"type": "FeatureCollection", "features": [{"geometry": {"type": "Point", "coordinates": [8.4089, 48.4536]}, "type": "Feature", "properties": {"id": 1468, "name": "Freudenstadt"}}, {"geometry": {"type": "Point", "coordinates": [6.3458, 54.165]}, "type": "Feature", "properties": {"id": 1228, "name": "UFS TW Ems"}}, {"geometry": {"type": "Point", "coordinates": [7.6964, 52.1344]}, "type": "Feature", "properties": {"id": 1766, "name": "M\u00fcnster/Osnabr\u00fcck"}}, {"geometry": {"type": "Point", "coordinates": [8.7058, 53.8713]}, "type": "Feature", "properties": {"id": 891, "name": "Cuxhaven"}}, {"geometry": {"type": "Point", "coordinates": [14.3167, 51.7758]}, "type": "Feature", "properties": {"id": 880, "name": "Cottbus"}}, {"geometry": {"type": "Point", "coordinates": [13.3086, 52.5642]}, "type": "Feature", "properties": {"id": 430, "name": "Berlin-Tegel"}}, {"geometry": {"type": "Point", "coordinates": [13.1342, 49.1128]}, "type": "Feature", "properties": {"id": 1832, "name": "Gro\u00dfer Arber"}}, {"geometry": {"type": "Point", "coordinates": [13.4342, 54.6789]}, "type": "Feature", "properties": {"id": 183, "name": "Arkona"}}, {"geometry": {"type": "Point", "coordinates": [13.7542, 51.1278]}, "type": "Feature", "properties": {"id": 1048, "name": "Dresden-Klotzsche"}}, {"geometry": {"type": "Point", "coordinates": [8.7985, 53.0445]}, "type": "Feature", "properties": {"id": 691, "name": "Bremen"}}, {"geometry": {"type": "Point", "coordinates": [12.1286, 50.8811]}, "type": "Feature", "properties": {"id": 1612, "name": "Gera-Leumnitz"}}, {"geometry": {"type": "Point", "coordinates": [8.0036, 47.8747]}, "type": "Feature", "properties": {"id": 1346, "name": "Feldberg/Schwarzwald"}}, {"geometry": {"type": "Point", "coordinates": [7.45, 54.1667]}, "type": "Feature", "properties": {"id": 954, "name": "UFS Deutsche Bucht"}}, {"geometry": {"type": "Point", "coordinates": [6.7686, 51.2958]}, "type": "Feature", "properties": {"id": 1078, "name": "D\u00fcsseldorf"}}, {"geometry": {"type": "Point", "coordinates": [8.5978, 50.0447]}, "type": "Feature", "properties": {"id": 1420, "name": "Frankfurt/Main"}}, {"geometry": {"type": "Point", "coordinates": [10.9419, 48.4253]}, "type": "Feature", "properties": {"id": 232, "name": "Augsburg"}}, {"geometry": {"type": "Point", "coordinates": [13.3103, 52.4578]}, "type": "Feature", "properties": {"id": 403, "name": "Berlin-Dahlem (FU)"}}, {"geometry": {"type": "Point", "coordinates": [9.6778, 52.4644]}, "type": "Feature", "properties": {"id": 2014, "name": "Hannover"}}, {"geometry": {"type": "Point", "coordinates": [12.2394, 51.4347]}, "type": "Feature", "properties": {"id": 2932, "name": "Leipzig/Halle"}}, {"geometry": {"type": "Point", "coordinates": [13.4019, 52.4672]}, "type": "Feature", "properties": {"id": 433, "name": "Berlin-Tempelhof"}}, {"geometry": {"type": "Point", "coordinates": [14.9506, 51.1622]}, "type": "Feature", "properties": {"id": 1684, "name": "G\u00f6rlitz"}}, {"geometry": {"type": "Point", "coordinates": [13.9906, 53.0314]}, "type": "Feature", "properties": {"id": 164, "name": "Angerm\u00fcnde"}}, {"geometry": {"type": "Point", "coordinates": [9.9881, 53.6332]}, "type": "Feature", "properties": {"id": 1975, "name": "Hamburg-Fuhlsb\u00fcttel"}}, {"geometry": {"type": "Point", "coordinates": [8.6439, 50.6014]}, "type": "Feature", "properties": {"id": 1639, "name": "Gie\u00dfen/Wettenberg"}}, {"geometry": {"type": "Point", "coordinates": [13.4056, 54.0967]}, "type": "Feature", "properties": {"id": 1757, "name": "Greifswald"}}, {"geometry": {"type": "Point", "coordinates": [10.9606, 50.9828]}, "type": "Feature", "properties": {"id": 1270, "name": "Erfurt-Weimar"}}, {"geometry": {"type": "Point", "coordinates": [10.6181, 51.7986]}, "type": "Feature", "properties": {"id": 722, "name": "Brocken"}}, {"geometry": {"type": "Point", "coordinates": [11.8131, 48.3475]}, "type": "Feature", "properties": {"id": 1262, "name": "M\u00fcnchen-Flughafen"}}, {"geometry": {"type": "Point", "coordinates": [7.892, 54.175]}, "type": "Feature", "properties": {"id": 2115, "name": "Helgoland"}}, {"geometry": {"type": "Point", "coordinates": [8.1264, 53.8617]}, "type": "Feature", "properties": {"id": 102, "name": "Leuchtturm Alte Weser"}}, {"geometry": {"type": "Point", "coordinates": [10.9206, 49.8742]}, "type": "Feature", "properties": {"id": 282, "name": "Bamberg"}}, {"geometry": {"type": "Point", "coordinates": [12.9533, 50.4283]}, "type": "Feature", "properties": {"id": 1358, "name": "Fichtelberg"}}, {"geometry": {"type": "Point", "coordinates": [9.2797, 51.1189]}, "type": "Feature", "properties": {"id": 1504, "name": "Fritzlar (Flugplatz)"}}, {"geometry": {"type": "Point", "coordinates": [9.9428, 50.4972]}, "type": "Feature", "properties": {"id": 5371, "name": "Wasserkuppe"}}, {"geometry": {"type": "Point", "coordinates": [8.5539, 49.5089]}, "type": "Feature", "properties": {"id": 5906, "name": "Mannheim"}}, {"geometry": {"type": "Point", "coordinates": [6.0242, 50.7981]}, "type": "Feature", "properties": {"id": 15000, "name": "Aachen-Orsbach"}}, {"geometry": {"type": "Point", "coordinates": [7.2644, 49.9461]}, "type": "Feature", "properties": {"id": 5871, "name": "Hahn"}}, {"geometry": {"type": "Point", "coordinates": [10.9847, 47.4208]}, "type": "Feature", "properties": {"id": 5792, "name": "Zugspitze"}}, {"geometry": {"type": "Point", "coordinates": [6.6581, 49.7478]}, "type": "Feature", "properties": {"id": 5100, "name": "Trier-Petrisberg"}}, {"geometry": {"type": "Point", "coordinates": [9.9578, 49.7703]}, "type": "Feature", "properties": {"id": 5705, "name": "W\u00fcrzburg"}}, {"geometry": {"type": "Point", "coordinates": [13.3528, 48.545]}, "type": "Feature", "properties": {"id": 5856, "name": "F\u00fcrstenzell"}}, {"geometry": {"type": "Point", "coordinates": [7.2287, 53.3881]}, "type": "Feature", "properties": {"id": 5839, "name": "Emden"}}, {"geometry": {"type": "Point", "coordinates": [11.0603, 54.5283]}, "type": "Feature", "properties": {"id": 5516, "name": "Fehmarn"}}, {"geometry": {"type": "Point", "coordinates": [8.7858, 50.09]}, "type": "Feature", "properties": {"id": 7341, "name": "Offenbach-Wetterpark"}}, {"geometry": {"type": "Point", "coordinates": [12.1844, 49.6661]}, "type": "Feature", "properties": {"id": 5397, "name": "Weiden"}}, {"geometry": {"type": "Point", "coordinates": [10.3347, 47.7231]}, "type": "Feature", "properties": {"id": 2559, "name": "Kempten"}}, {"geometry": {"type": "Point", "coordinates": [11.0547, 49.5031]}, "type": "Feature", "properties": {"id": 3668, "name": "N\u00fcrnberg"}}, {"geometry": {"type": "Point", "coordinates": [11.9319, 53.3222]}, "type": "Feature", "properties": {"id": 3196, "name": "Marnitz"}}, {"geometry": {"type": "Point", "coordinates": [9.8644, 48.6656]}, "type": "Feature", "properties": {"id": 4887, "name": "St\u00f6tten"}}, {"geometry": {"type": "Point", "coordinates": [9.2235, 48.6883]}, "type": "Feature", "properties": {"id": 4931, "name": "Stuttgart-Echterdingen"}}, {"geometry": {"type": "Point", "coordinates": [8.4889, 51.18]}, "type": "Feature", "properties": {"id": 2483, "name": "Kahler Asten"}}, {"geometry": {"type": "Point", "coordinates": [10.2758, 47.3983]}, "type": "Feature", "properties": {"id": 3730, "name": "Oberstdorf"}}, {"geometry": {"type": "Point", "coordinates": [8.3303, 48.9725]}, "type": "Feature", "properties": {"id": 4177, "name": "Rheinstetten"}}, {"geometry": {"type": "Point", "coordinates": [7.1075, 49.2128]}, "type": "Feature", "properties": {"id": 4336, "name": "Saarbr\u00fccken-Ensheim"}}, {"geometry": {"type": "Point", "coordinates": [12.1019, 49.0422]}, "type": "Feature", "properties": {"id": 4104, "name": "Regensburg"}}, {"geometry": {"type": "Point", "coordinates": [6.8697, 50.3601]}, "type": "Feature", "properties": {"id": 3660, "name": "N\u00fcrburg-Barweiler"}}, {"geometry": {"type": "Point", "coordinates": [13.0622, 52.3811]}, "type": "Feature", "properties": {"id": 3987, "name": "Potsdam"}}, {"geometry": {"type": "Point", "coordinates": [10.3769, 50.5611]}, "type": "Feature", "properties": {"id": 3231, "name": "Meiningen"}}, {"geometry": {"type": "Point", "coordinates": [7.1519, 53.7122]}, "type": "Feature", "properties": {"id": 3631, "name": "Norderney"}}, {"geometry": {"type": "Point", "coordinates": [14.1178, 52.2083]}, "type": "Feature", "properties": {"id": 3015, "name": "Lindenberg"}}, {"geometry": {"type": "Point", "coordinates": [8.4125, 55.011]}, "type": "Feature", "properties": {"id": 3032, "name": "List auf Sylt"}}, {"geometry": {"type": "Point", "coordinates": [10.2783, 54.5]}, "type": "Feature", "properties": {"id": 2961, "name": "Leuchtturm Kiel"}}, {"geometry": {"type": "Point", "coordinates": [7.1572, 50.8644]}, "type": "Feature", "properties": {"id": 2667, "name": "K\u00f6ln-Bonn"}}, {"geometry": {"type": "Point", "coordinates": [10.1433, 54.3761]}, "type": "Feature", "properties": {"id": 2564, "name": "Kiel-Holtenau"}}, {"geometry": {"type": "Point", "coordinates": [12.8069, 52.9036]}, "type": "Feature", "properties": {"id": 3552, "name": "Neuruppin"}}, {"geometry": {"type": "Point", "coordinates": [11.0108, 47.8008]}, "type": "Feature", "properties": {"id": 2290, "name": "Hohenpei\u00dfenberg"}}, {"geometry": {"type": "Point", "coordinates": [12.0803, 54.18]}, "type": "Feature", "properties": {"id": 4271, "name": "Rostock-Warnem\u00fcnde"}}, {"geometry": {"type": "Point", "coordinates": [12.5597, 48.8275]}, "type": "Feature", "properties": {"id": 4911, "name": "Straubing"}}, {"geometry": {"type": "Point", "coordinates": [11.5825, 52.1028]}, "type": "Feature", "properties": {"id": 3126, "name": "Magdeburg"}}, {"geometry": {"type": "Point", "coordinates": [11.3872, 53.6425]}, "type": "Feature", "properties": {"id": 4625, "name": "Schwerin"}}, {"geometry": {"type": "Point", "coordinates": [7.828, 48.3647]}, "type": "Feature", "properties": {"id": 2812, "name": "Lahr"}}, {"geometry": {"type": "Point", "coordinates": [9.19, 47.6772]}, "type": "Feature", "properties": {"id": 2712, "name": "Konstanz"}}, {"geometry": {"type": "Point", "coordinates": [8.8386, 51.7853]}, "type": "Feature", "properties": {"id": 3028, "name": "Lippspringe, Bad"}}, {"geometry": {"type": "Point", "coordinates": [9.5486, 54.5275]}, "type": "Feature", "properties": {"id": 4466, "name": "Schleswig"}}, {"geometry": {"type": "Point", "coordinates": [9.5172, 49.2069]}, "type": "Feature", "properties": {"id": 3761, "name": "\u00d6hringen"}}, {"geometry": {"type": "Point", "coordinates": [11.8758, 50.3119]}, "type": "Feature", "properties": {"id": 2261, "name": "Hof"}}]}